,ID,Severity,Start_Time,End_Time,Start_Lat,Start_Lng,End_Lat,End_Lng,Distance(mi),Description,Number,Street,Side,City,County,State,Zipcode,Country,Timezone,Airport_Code,Weather_Timestamp,Temperature(F),Wind_Chill(F),Humidity(%),Pressure(in),Visibility(mi),Wind_Direction,Wind_Speed(mph),Precipitation(in),Weather_Condition,Amenity,Bump,Crossing,Give_Way,Junction,No_Exit,Railway,Roundabout,Station,Stop,Traffic_Calming,Traffic_Signal,Turning_Loop,Sunrise_Sunset,Civil_Twilight,Nautical_Twilight,Astronomical_Twilight
0,A-2716600,3,2016-02-08 00:37:08,2016-02-08 06:37:08,40.10891,-83.09286,40.11206,-83.03187,3.23,Between Sawmill Rd/Exit 20 and OH-315/Olentangy Riv Rd/Exit 22 - Accident.,,Outerbelt E,R,Dublin,Franklin,OH,43017,US,US/Eastern,KOSU,2016-02-08 00:53:00,42.1,36.1,58.0,29.76,10.0,SW,10.4,0.0,Light Rain,False,False,False,False,False,False,False,False,False,False,False,False,False,Night,Night,Night,Night
1,A-2716601,2,2016-02-08 05:56:20,2016-02-08 11:56:20,39.86542,-84.0628,39.86501,-84.04873,0.747,At OH-4/OH-235/Exit 41 - Accident.,,I-70 E,R,Dayton,Montgomery,OH,45424,US,US/Eastern,KFFO,2016-02-08 05:58:00,36.9,,91.0,29.68,10.0,Calm,,0.02,Light Rain,False,False,False,False,False,False,False,False,False,False,False,False,False,Night,Night,Night,Night
2,A-2716602,2,2016-02-08 06:15:39,2016-02-08 12:15:39,39.10266,-84.52468,39.10209,-84.52396,0.055,At I-71/US-50/Exit 1 - Accident.,,I-75 S,R,Cincinnati,Hamilton,OH,45203,US,US/Eastern,KLUK,2016-02-08 05:53:00,36.0,,97.0,29.7,10.0,Calm,,0.02,Overcast,False,False,False,False,True,False,False,False,False,False,False,False,False,Night,Night,Night,Day
3,A-2716603,2,2016-02-08 06:15:39,2016-02-08 12:15:39,39.10148,-84.52341,39.09841,-84.52241,0.219,At I-71/US-50/Exit 1 - Accident.,,US-50 E,R,Cincinnati,Hamilton,OH,45202,US,US/Eastern,KLUK,2016-02-08 05:53:00,36.0,,97.0,29.7,10.0,Calm,,0.02,Overcast,False,False,False,False,True,False,False,False,False,False,False,False,False,Night,Night,Night,Day
4,A-2716604,2,2016-02-08 06:51:45,2016-02-08 12:51:45,41.06213,-81.53784,41.06217,-81.53547,0.123,At Dart Ave/Exit 21 - Accident.,,I-77 N,R,Akron,Summit,OH,44311,US,US/Eastern,KAKR,2016-02-08 06:54:00,39.0,,55.0,29.65,10.0,Calm,,,Overcast,False,False,False,False,False,False,False,False,False,False,False,False,False,Night,Night,Day,Day
5,A-2716605,3,2016-02-08 07:53:43,2016-02-08 13:53:43,39.172393,-84.492792,39.170476,-84.501798,0.5,At Mitchell Ave/Exit 6 - Accident.,,I-75 S,R,Cincinnati,Hamilton,OH,45217,US,US/Eastern,KLUK,2016-02-08 07:53:00,37.0,29.8,93.0,29.69,10.0,WSW,10.4,0.01,Light Rain,False,False,False,False,False,False,False,False,False,False,False,False,False,Day,Day,Day,Day
6,A-2716606,2,2016-02-08 08:16:57,2016-02-08 14:16:57,39.06324,-84.03243,39.06731,-84.05851,1.427,At Dela Palma Rd - Accident.,,State Route 32,R,Williamsburg,Clermont,OH,45176,US,US/Eastern,KI69,2016-02-08 08:16:00,35.6,29.2,100.0,29.66,10.0,WSW,8.1,,Overcast,False,False,False,False,False,False,False,False,False,False,False,True,False,Day,Day,Day,Day
7,A-2716607,2,2016-02-08 08:16:57,2016-02-08 14:16:57,39.06708,-84.05855,39.06302,-84.03254,1.423,At Dela Palma Rd - Accident.,1887.0, State Route 32,R,Batavia,Clermont,OH,45103,US,US/Eastern,KI69,2016-02-08 08:16:00,35.6,29.2,100.0,29.66,10.0,WSW,8.1,,Overcast,False,False,False,False,False,False,False,False,False,False,False,False,False,Day,Day,Day,Day
8,A-2716608,2,2016-02-08 08:15:41,2016-02-08 14:15:41,39.77565,-84.18603,39.77275,-84.18805,0.227,At OH-4/Exit 54 - Accident.,,I-75 S,R,Dayton,Montgomery,OH,45404,US,US/Eastern,KFFO,2016-02-08 08:18:00,33.8,,100.0,29.63,3.0,SW,2.3,,Mostly Cloudy,False,False,False,False,False,False,False,False,False,False,False,False,False,Day,Day,Day,Day
9,A-2716609,2,2016-02-08 11:51:46,2016-02-08 17:51:46,41.37531,-81.82017,41.36786,-81.82174,0.521,At Bagley Rd/Exit 235 - Accident.,,I-71 S,R,Cleveland,Cuyahoga,OH,44130,US,US/Eastern,KCLE,2016-02-08 11:51:00,33.1,30.0,92.0,29.63,0.5,SW,3.5,0.08,Snow,False,False,False,False,True,False,False,False,False,False,False,False,False,Day,Day,Day,Day
10,A-2716610,2,2016-02-08 14:19:57,2016-02-08 20:19:57,40.702247,-84.075887,40.69911,-84.084293,0.491,At OH-65/Exit 122 - Accident.,,E Hanthorn Rd,R,Lima,Allen,OH,45806,US,US/Eastern,KAOH,2016-02-08 13:53:00,39.0,31.8,70.0,29.59,10.0,WNW,11.5,,Overcast,False,False,False,False,False,False,False,False,False,False,False,False,False,Day,Day,Day,Day
11,A-2716611,2,2016-02-08 15:16:43,2016-02-08 21:16:43,40.10931,-82.96849,40.11078,-82.984,0.826,At I-71/Exit 26 - Accident.,,Outerbelt W,R,Westerville,Franklin,OH,43081,US,US/Eastern,KCMH,2016-02-08 15:12:00,32.0,28.7,100.0,29.59,0.5,West,3.5,0.05,Snow,False,False,False,False,False,False,False,False,False,False,False,False,False,Day,Day,Day,Day
12,A-2716612,2,2016-02-08 15:43:50,2016-02-08 21:43:50,39.19288,-84.47723,39.19615,-84.47335,0.307,At OH-4/Paddock Rd/Exit 9 - Accident.,,I-75 N,R,Cincinnati,Hamilton,OH,45216,US,US/Eastern,KLUK,2016-02-08 15:47:00,33.8,29.6,100.0,29.66,3.0,NNW,4.6,0.03,Light Snow,False,False,False,False,False,False,False,False,False,False,False,False,False,Day,Day,Day,Day
13,A-2716613,2,2016-02-08 16:50:57,2016-02-08 22:50:57,39.13877,-84.53394,39.13977,-84.5343,0.072,At US-52/Hopple St/Exit 3 - Accident.,,Hopple St,R,Cincinnati,Hamilton,OH,45225,US,US/Eastern,KLUK,2016-02-08 16:53:00,35.1,32.2,96.0,29.69,10.0,South,3.5,,Overcast,False,False,True,False,False,False,False,False,False,False,False,True,False,Day,Day,Day,Day
14,A-2716614,2,2016-02-08 17:27:39,2016-02-08 23:27:39,41.4739,-81.704233,41.47388,-81.70559,0.07,At US-42/Exit 170 - Accident.,,I-90 E,R,Cleveland,Cuyahoga,OH,44113,US,US/Eastern,KBKL,2016-02-08 17:36:00,33.1,24.4,96.0,29.59,1.8,West,11.5,0.0,Light Snow,False,False,False,False,False,False,False,False,False,False,False,False,False,Day,Day,Day,Day
15,A-2716615,2,2016-02-08 17:30:18,2016-02-08 23:30:18,39.582242,-83.677814,39.603013,-83.637319,2.59,Between OH-72/Exit 58 and US-35/Exit 65 - Accident.,,I-71 N,R,Jamestown,Greene,OH,45335,US,US/Eastern,KSGH,2016-02-08 17:28:00,33.8,28.6,93.0,29.64,1.0,West,5.8,0.01,Light Snow,False,False,False,False,False,False,False,False,False,False,False,False,False,Day,Day,Day,Day
16,A-2716616,3,2016-02-08 18:11:11,2016-02-09 00:11:11,40.151785,-81.312635,40.151747,-81.312682,0.004,At Shipley Rd - Accident.,48999.0, Titus Rd,R,Freeport,Guernsey,OH,43973,US,US/Eastern,KPHD,2016-02-08 18:23:00,33.1,,92.0,29.62,10.0,Calm,,,Mostly Cloudy,False,False,False,False,False,False,False,False,False,False,False,False,False,Night,Day,Day,Day
17,A-2716617,3,2016-02-08 18:11:11,2016-02-09 00:11:11,40.151747,-81.312682,40.151785,-81.312635,0.004,At Titus Rd - Accident.,22549.0, Cadiz Rd,L,Freeport,Harrison,OH,43973-8626,US,US/Eastern,KPHD,2016-02-08 18:23:00,33.1,,92.0,29.62,10.0,Calm,,,Mostly Cloudy,False,False,False,False,False,False,False,False,False,False,False,False,False,Night,Day,Day,Day
18,A-2716618,3,2016-02-08 19:47:42,2016-02-09 01:47:42,39.97241,-82.84695,39.98529,-82.85667,1.028,At OH-16/Broad St/Exit 39 - Accident.,,Outerbelt N,R,Columbus,Franklin,OH,43213,US,US/Eastern,KCMH,2016-02-08 19:51:00,34.0,,100.0,29.65,6.0,Calm,,0.07,Overcast,False,False,False,False,False,False,False,False,False,False,False,False,False,Night,Night,Night,Night
19,A-2716619,2,2016-02-08 19:47:42,2016-02-09 01:47:42,39.9838,-82.85657,39.9725,-82.84746,0.918,At I-270 - Accident.,,Outerbelt S,R,Columbus,Franklin,OH,43213,US,US/Eastern,KCMH,2016-02-08 19:51:00,34.0,,100.0,29.65,6.0,Calm,,0.07,Overcast,False,False,False,False,False,False,False,False,False,False,False,False,False,Night,Night,Night,Night
20,A-2716620,3,2016-02-08 20:13:22,2016-02-09 02:13:22,40.02664,-82.9944,40.01228,-82.99218,0.999,Between Weber Rd/Exit 113 and Hudson St/Exit 112 - Accident.,,North Fwy S,R,Columbus,Franklin,OH,43224,US,US/Eastern,KCMH,2016-02-08 20:12:00,33.8,27.0,100.0,29.63,1.0,West,8.1,0.0,Light Snow,False,False,False,False,False,False,False,False,False,False,False,False,False,Night,Night,Night,Night
21,A-2716621,4,2016-02-08 21:00:17,2016-02-09 03:00:17,41.679361,-83.573037,41.666124,-83.566335,0.978,Closed between I-475/Exit 204 and US-24/Detroit Ave/Exit 203 - Road closed due to accident.,,I-75 S,R,Toledo,Lucas,OH,43610,US,US/Eastern,KDUH,2016-02-08 20:55:00,33.4,26.6,79.0,29.62,10.0,West,8.1,,Overcast,False,False,False,False,False,False,False,False,False,False,False,False,False,Night,Night,Night,Night
22,A-2716622,2,2016-02-08 21:10:10,2016-02-09 03:10:10,40.99613,-85.26613,40.98982,-85.26986,0.477,At Fort Wayne - Accident.,,US-33 S,R,Roanoke,Allen,IN,46783,US,US/Eastern,KFWA,2016-02-08 20:54:00,28.0,16.1,88.0,29.71,8.0,West,16.1,0.0,Light Snow,False,False,False,False,False,False,False,False,False,False,False,False,False,Night,Night,Night,Night
23,A-2716623,3,2016-02-08 21:30:31,2016-02-09 03:30:31,39.0381,-84.59243,39.03475,-84.60007,0.471,At I-275/Exit 185 - Accident.,,I-75 S,R,Ft Mitchell,Kenton,KY,41017,US,US/Eastern,KCVG,2016-02-08 21:15:00,26.6,15.2,80.0,29.73,3.0,West,13.8,0.0,Light Snow,False,False,False,False,False,False,False,False,False,False,False,False,False,Night,Night,Night,Night
24,A-2716624,2,2016-02-09 05:54:01,2016-02-09 11:54:01,40.03386,-82.99601,40.02246,-82.99515,0.789,Between Broadway/Exit 114 and Weber Rd/Exit 113 - Accident.,,North Fwy N,R,Columbus,Franklin,OH,43224,US,US/Eastern,KCMH,2016-02-09 05:51:00,25.0,15.5,88.0,29.65,1.0,SW,9.2,0.02,Light Snow,False,False,False,False,False,False,False,False,False,False,False,False,False,Night,Night,Night,Night
25,A-2716625,2,2016-02-09 06:10:59,2016-02-09 12:10:59,39.85798,-84.28181,39.86441,-84.21554,3.543,Between OH-48/Exit 29 and Dayton Intl Airport Rd/Exit 32 - Accident.,,I-70 E,R,Dayton,Montgomery,OH,45415,US,US/Eastern,KDAY,2016-02-09 06:03:00,23.0,10.1,88.0,29.66,2.0,West,15.0,0.0,Light Snow,False,False,False,False,False,False,False,False,False,False,False,False,False,Night,Night,Night,Day
26,A-2716626,2,2016-02-09 06:46:32,2016-02-09 12:46:32,39.15267,-84.5395,39.14745,-84.53923,0.361,At I-74/US-52/US-27/Exit 4 - Accident.,,I-75 S,R,Cincinnati,Hamilton,OH,45223,US,US/Eastern,KLUK,2016-02-09 06:53:00,21.0,9.3,88.0,29.78,1.5,WSW,11.5,0.01,Light Snow,False,False,False,False,False,False,False,False,False,False,False,False,False,Night,Night,Day,Day
27,A-2716627,2,2016-02-09 07:18:10,2016-02-09 13:18:10,39.30732,-85.95982,39.30457,-85.96284,0.249,At US-31/Exit 76 - Accident.,,I-65 S,R,Edinburgh,Bartholomew,IN,46124,US,US/Eastern,K1II,2016-02-09 06:50:00,19.0,9.0,100.0,29.05,2.0,W,9.0,,Cloudy,False,False,False,False,False,False,False,False,False,False,False,False,False,Night,Day,Day,Day
28,A-2716628,4,2016-02-09 07:28:15,2016-02-09 13:28:15,39.77572,-84.04815,39.76485,-84.09274,2.484,Closed between OH-844/Fairfield Rd/Exit 17 and Colonel Glenn Hwy/Exit 15 - Road closed due to accident.,,I-675 S,R,Fairborn,Greene,OH,45324,US,US/Eastern,KFFO,2016-02-09 07:08:00,23.0,12.4,86.0,29.68,1.5,SW,10.4,,Light Snow,False,False,False,False,False,False,False,False,False,False,False,False,False,Night,Day,Day,Day
29,A-2716629,2,2016-02-09 07:25:40,2016-02-09 13:25:40,39.97643,-83.12306,39.97609,-83.11068,0.656,At I-270/Exit 93 - Accident.,,I-70 E,R,Columbus,Franklin,OH,43228,US,US/Eastern,KTZR,2016-02-09 07:20:00,21.2,8.3,93.0,29.66,1.5,WSW,13.8,,Light Snow,False,False,False,False,False,False,False,False,False,False,False,False,False,Night,Day,Day,Day
30,A-2716630,3,2016-02-09 07:44:49,2016-02-09 13:44:49,39.58595,-85.82518,39.58444,-85.82301,0.156,At Fairland Rd/400/Exit 109 - Accident.,,US-421 S,R,Shelbyville,Shelby,IN,46176,US,US/Eastern,KGEZ,2016-02-09 07:41:00,21.9,9.8,82.0,29.75,1.5,West,12.7,0.0,Light Snow,False,False,False,False,False,False,False,False,False,False,False,False,False,Day,Day,Day,Day
31,A-2716631,3,2016-02-09 07:48:40,2016-02-09 13:48:40,39.3638,-85.51659,39.45279,-85.628,8.554,Between US-421/Exit 132 and US-421/Exit 123 - Accident.,,I-74 W,R,Greensburg,Decatur,IN,47240,US,US/Eastern,KBAK,2016-02-09 06:50:00,19.4,8.6,100.0,29.78,2.0,West,9.2,,Light Snow,False,False,False,False,False,False,False,False,False,False,False,False,False,Day,Day,Day,Day
32,A-2716632,3,2016-02-09 07:48:40,2016-02-09 13:48:40,39.45132,-85.62516,39.36277,-85.51655,8.429,Between US-421/Exit 123 and US-421/Exit 132 - Accident.,,US-421 S,R,Saint Paul,Decatur,IN,47272,US,US/Eastern,KGEZ,2016-02-09 07:48:00,21.2,8.9,86.0,29.75,3.0,West,12.7,0.0,Light Snow,False,False,False,False,False,False,False,False,False,False,False,False,False,Day,Day,Day,Day
33,A-2716633,2,2016-02-09 08:00:16,2016-02-09 14:00:16,39.75067,-84.14148,39.74883,-84.13402,0.416,At Smithville Rd - Accident.,,US-35 E,R,Dayton,Montgomery,OH,45410,US,US/Eastern,KFFO,2016-02-09 07:58:00,22.5,12.4,90.0,29.73,1.2,SW,9.2,0.0,Light Snow,False,False,False,False,False,False,False,False,False,False,False,False,False,Day,Day,Day,Day
34,A-2716634,3,2016-02-09 08:02:55,2016-02-09 14:02:55,39.2675,-81.49929,39.26867,-81.49909,0.082,At US-50/Exit 176 - Accident.,,US-50 E,R,Parkersburg,Wood,WV,26104,US,US/Eastern,KPKB,2016-02-09 07:53:00,24.1,13.7,88.0,29.72,1.0,WSW,10.4,0.02,Light Snow,False,False,False,False,False,False,False,False,False,False,False,False,False,Day,Day,Day,Day
35,A-2716635,2,2016-02-09 08:18:58,2016-02-09 14:18:58,39.86025,-85.96623,39.86025,-85.96623,0.0,At High Timber Dr - Accident.,5800.0, Long Lake Ln,L,Indianapolis,Marion,IN,46235-6127,US,US/Eastern,KMQJ,2016-02-09 08:14:00,19.4,5.0,86.0,29.76,5.0,WNW,16.1,,Overcast,False,False,False,False,False,False,False,False,False,False,False,False,False,Day,Day,Day,Day
36,A-2716636,2,2016-02-09 09:07:19,2016-02-09 15:07:19,41.95677,-83.67214,41.95939,-83.67235,0.181,At M-50/Exit 17 - Accident.,,US-23 N,R,Dundee,Monroe,MI,48131,US,US/Eastern,KTTF,2016-02-09 09:14:00,30.2,22.6,93.0,29.58,1.2,West,8.1,,Light Snow,False,False,False,False,False,False,False,False,False,False,False,False,False,Day,Day,Day,Day
37,A-2716637,3,2016-02-09 10:07:49,2016-02-09 16:07:49,38.27401,-85.74844,38.28558,-85.75518,0.879,Between US-31/IN-62 and Stansifer Ave/Exit 1 - Accident.,,I-65 S,R,Jeffersonville,Clark,IN,47130,US,US/Eastern,KLOU,2016-02-09 09:53:00,23.0,11.1,74.0,29.87,10.0,West,12.7,,Overcast,False,False,False,False,False,False,False,False,False,False,False,False,False,Day,Day,Day,Day
38,A-2716638,2,2016-02-09 11:09:49,2016-02-09 17:09:49,41.95677,-83.67214,41.95939,-83.67235,0.181,At M-50/Exit 17 - Accident.,,US-23 N,R,Dundee,Monroe,MI,48131,US,US/Eastern,KTTF,2016-02-09 11:15:00,31.8,22.3,84.0,29.6,2.5,WNW,12.7,,Light Snow,False,False,False,False,False,False,False,False,False,False,False,False,False,Day,Day,Day,Day
39,A-2716639,2,2016-02-09 11:28:49,2016-02-09 17:28:49,40.52225,-80.06666,40.5283,-80.07188,0.5,At Camp Horne Rd/Exit 15 - Accident.,,I-279 N,R,Pittsburgh,Allegheny,PA,15237,US,US/Eastern,KPIT,2016-02-09 11:12:00,30.0,20.0,88.0,29.56,1.5,West,12.7,0.0,Light Snow,False,False,False,False,False,False,False,False,False,False,False,False,False,Day,Day,Day,Day
40,A-2716640,2,2016-02-09 12:31:08,2016-02-09 18:31:08,40.487814,-80.009439,40.48614,-80.009008,0.118,At Venture St/Exit 10 - Accident.,,US-19 Trk S,R,Pittsburgh,Allegheny,PA,15214,US,US/Eastern,KAGC,2016-02-09 12:53:00,28.9,18.2,82.0,29.61,1.0,SW,13.8,0.0,Light Snow,False,False,False,False,False,False,False,False,False,False,False,False,False,Day,Day,Day,Day
41,A-2716641,4,2016-02-09 15:33:59,2016-02-09 21:33:59,40.156298,-83.018431,40.153321,-83.018205,0.206,Closed at Gold Meadow Dr - Road closed due to accident.,9219.0, Columbus Pike,L,Lewis Center,Delaware,OH,43035-9415,US,US/Eastern,KDLZ,2016-02-09 15:36:00,26.6,16.8,86.0,29.68,2.0,West,10.4,,Light Snow,False,False,False,False,False,False,False,False,False,False,False,False,False,Day,Day,Day,Day
42,A-2716642,2,2016-02-09 17:12:40,2016-02-09 23:12:40,41.47461,-81.71182,41.47023,-81.74188,1.585,Between 41st St/Exit 169 and OH-10/Lorain Ave/Exit 167 - Accident.,,Northwest Fwy W,R,Cleveland,Cuyahoga,OH,44113,US,US/Eastern,KBKL,2016-02-09 17:13:00,30.9,18.7,92.0,29.62,1.0,West,19.6,0.0,Light Snow,False,False,False,False,False,False,False,False,False,False,False,False,False,Day,Day,Day,Day
43,A-2716643,2,2016-02-09 17:13:58,2016-02-09 23:13:58,41.0618,-81.54608,41.06193,-81.54149,0.239,At OH-59/Exit 21 - Accident.,,I-76 E,R,Akron,Summit,OH,44307,US,US/Eastern,KAKR,2016-02-09 17:13:00,28.9,20.4,82.0,29.62,2.5,SW,9.2,0.0,Light Snow,False,False,False,False,False,False,False,False,False,False,False,False,False,Day,Day,Day,Day
44,A-2716644,4,2016-02-09 18:20:58,2016-02-10 00:20:58,40.45112,-85.15048,40.35429,-85.14993,6.69,Closed between IN-26 and IN-67 - Road closed due to accident.,9001.0, W State Road 26,R,Dunkirk,Jay,IN,47336,US,US/Eastern,KMIE,2016-02-09 18:20:00,19.9,7.3,81.0,29.85,2.0,WNW,12.7,0.0,Light Snow,False,False,False,False,False,False,False,False,False,False,False,False,False,Night,Day,Day,Day
45,A-2716645,4,2016-02-09 18:20:58,2016-02-10 00:20:58,40.35429,-85.14993,40.45112,-85.15048,6.69,Closed between IN-67 and IN-26 - Road closed due to accident.,473.0, N Meridian St,R,Redkey,Jay,IN,47373-9430,US,US/Eastern,KMIE,2016-02-09 18:20:00,19.9,7.3,81.0,29.85,2.0,WNW,12.7,0.0,Light Snow,False,False,False,False,False,False,False,False,False,False,False,False,False,Night,Day,Day,Day
46,A-2716646,4,2016-02-09 22:37:48,2016-02-10 04:37:48,39.75855,-85.13715,39.74408,-85.13749,1.0,Closed between Lindsey Rd and Bentonville Rd - Road closed due to accident.,5149.0, S State Road 1,R,Milton,Wayne,IN,47357-9741,US,US/Eastern,KAID,2016-02-09 15:45:00,23.0,11.7,80.0,29.79,3.0,WNW,11.5,,Light Snow,False,False,False,False,False,False,False,False,False,False,False,False,False,Night,Night,Night,Night
47,A-2716647,4,2016-02-09 22:37:48,2016-02-10 04:37:48,39.74408,-85.13749,39.75855,-85.13715,1.0,Closed between Bentonville Rd and Lindsey Rd - Road closed due to accident.,6114.0, S State Road 1,L,Milton,Wayne,IN,47357,US,US/Eastern,KAID,2016-02-09 15:45:00,23.0,11.7,80.0,29.79,3.0,WNW,11.5,,Light Snow,False,False,False,False,False,False,False,False,False,False,False,False,False,Night,Night,Night,Night
48,A-2716648,4,2016-02-10 06:17:32,2016-02-10 12:17:32,39.965148,-83.020499,39.976605,-83.021071,0.792,Closed between US-33/Dublin Rd and Goodale St - Road closed due to accident.,,W Innerbelt N,R,Columbus,Franklin,OH,43215,US,US/Eastern,KCMH,2016-02-10 06:19:00,15.8,2.7,73.0,29.87,4.0,WSW,11.5,0.0,Light Snow,False,False,False,False,False,False,False,False,False,False,False,False,False,Night,Night,Night,Day
49,A-2716649,4,2016-02-10 06:18:49,2016-02-10 12:18:49,40.72813,-84.78965,40.74559,-84.78962,1.206,Closed between Willshire and US-33/Rockford Rd - Road closed due to accident.,12998.0, State Route 49,R,Willshire,Van Wert,OH,45898-9523,US,US/Eastern,KFWA,2016-02-10 05:54:00,17.1,0.6,77.0,29.91,2.5,West,19.6,0.01,Light Snow,False,False,False,False,False,False,False,False,False,False,False,False,False,Night,Night,Night,Day
50,A-2716650,2,2016-02-10 06:29:48,2016-02-10 12:29:48,39.85223,-85.25847,39.85227,-85.26282,0.231,At Wilbur Wright Rd/Exit 131 - Accident.,,I-70 W,R,Straughn,Henry,IN,47387,US,US/Eastern,KAID,2016-02-10 08:46:00,12.2,-1.8,85.0,29.97,2.0,West,11.5,,Light Snow,False,False,False,False,False,False,False,False,False,False,False,False,False,Night,Night,Night,Day
51,A-2716651,2,2016-02-10 08:19:15,2016-02-10 14:19:15,41.46747,-81.75909,41.47442,-81.71182,2.494,Between West Blvd/98th St/Exit 167 and 41st St/Exit 169 - Accident.,,I-90 E,R,Cleveland,Cuyahoga,OH,44111,US,US/Eastern,KCLE,2016-02-10 07:51:00,19.9,5.7,78.0,29.83,8.0,WSW,16.1,0.0,Light Snow,False,False,False,False,False,False,False,False,False,False,False,False,False,Day,Day,Day,Day
52,A-2716652,2,2016-02-10 08:35:27,2016-02-10 14:35:27,41.83193,-80.10143,41.84149,-80.11099,0.824,Between Irish Rd and Blystone Rd - Accident.,25529.0, Highway 99,L,Cambridge Springs,Crawford,PA,16403,US,US/Eastern,KGKJ,2016-02-10 08:34:00,21.0,9.9,85.0,29.69,1.0,WSW,10.4,0.0,Light Snow,False,False,False,False,False,False,False,False,False,False,False,False,False,Day,Day,Day,Day
53,A-2716653,2,2016-02-10 08:44:31,2016-02-10 14:44:31,39.744287,-84.204939,39.75052,-84.20541,0.431,At US-35/Albany St/Exit 52 - Accident.,,I-75 N,R,Dayton,Montgomery,OH,45417,US,US/Eastern,KDAY,2016-02-10 08:47:00,14.0,-2.5,84.0,29.92,3.0,West,17.3,0.0,Light Snow,False,False,False,False,False,False,False,False,False,False,False,False,False,Day,Day,Day,Day
54,A-2716654,3,2016-02-10 08:39:16,2016-02-10 14:39:16,39.71548,-84.22033,39.71767,-84.21632,0.261,At Dryden Rd/Exit 50 - Accident.,,I-75 N,R,Dayton,Montgomery,OH,45439,US,US/Eastern,KMGY,2016-02-10 08:33:00,14.0,1.2,80.0,29.93,1.5,WSW,10.4,0.0,Light Snow,False,False,False,False,False,False,False,False,False,False,False,False,False,Day,Day,Day,Day
55,A-2716655,2,2016-02-10 08:39:16,2016-02-10 14:39:16,39.7504,-84.20561,39.73167,-84.2058,1.294,Between US-35/Albany St/Exit 52 and Edwin C Moses Blvd/Exit 51 - Accident.,,I-75 N,R,Dayton,Montgomery,OH,45402,US,US/Eastern,KFFO,2016-02-10 08:58:00,15.3,2.8,81.0,29.98,2.0,WSW,10.4,0.0,Light Snow,False,False,False,False,False,False,False,False,False,False,False,False,False,Day,Day,Day,Day
56,A-2716656,2,2016-02-10 08:48:06,2016-02-10 14:48:06,41.72316,-84.96444,41.715052,-84.951306,0.879,Between James Whitcomb Riley Service Area and Eastpoint Barrier Toll Plaza - Accident.,,I-90 E,R,Fremont,Steuben,IN,46737,US,US/Eastern,KANQ,2016-02-10 08:55:00,17.6,10.7,93.0,29.83,2.0,West,4.6,,,False,False,False,False,False,False,False,False,False,False,False,False,False,Day,Day,Day,Day
57,A-2716657,2,2016-02-10 09:06:09,2016-02-10 15:06:09,40.04376,-82.99708,40.06376,-82.99679,1.382,Between Cooke Rd/Exit 115 and Morse Rd/Exit 116 - Accident.,,North Fwy N,R,Columbus,Franklin,OH,43224,US,US/Eastern,KCMH,2016-02-10 09:07:00,15.8,3.4,79.0,29.9,1.0,WSW,10.4,0.01,Light Snow,False,False,False,False,False,False,False,False,False,False,False,False,False,Day,Day,Day,Day
58,A-2716658,2,2016-02-10 09:06:09,2016-02-10 15:06:09,38.1781,-85.71946,38.18104,-85.72116,0.223,At KY-61/Grade Lane/Exit 130 - Accident.,,Dr Martin Luther King Jr Expy N,R,Louisville,Jefferson,KY,40213,US,US/Eastern,KSDF,2016-02-10 08:56:00,17.1,5.8,68.0,30.12,10.0,West,9.2,0.0,Mostly Cloudy,False,False,False,False,False,False,False,False,False,False,False,False,False,Day,Day,Day,Day
59,A-2716659,2,2016-02-10 09:08:29,2016-02-10 15:08:29,38.18577,-85.80678,38.20648,-85.82785,1.832,Between US-31/US-60/Exit 8 and South Cane Run Rd/Exit 5 - Accident.,,Henry Watterson Expy W,R,Louisville,Jefferson,KY,40216,US,US/Eastern,KSDF,2016-02-10 08:56:00,17.1,5.8,68.0,30.12,10.0,West,9.2,0.0,Mostly Cloudy,False,False,False,False,False,False,False,False,False,False,False,False,False,Day,Day,Day,Day
60,A-2716660,3,2016-02-10 09:08:29,2016-02-10 15:08:29,38.27191,-85.80838,38.27191,-85.80838,0.0,At Bank St/Exit 1 - Accident.,,Henry Watterson Expy W,R,Louisville,Jefferson,KY,40212,US,US/Eastern,KSDF,2016-02-10 08:56:00,17.1,5.8,68.0,30.12,10.0,West,9.2,0.0,Mostly Cloudy,False,False,False,False,False,False,False,False,False,False,False,False,False,Day,Day,Day,Day
61,A-2716661,2,2016-02-10 09:18:13,2016-02-10 15:18:13,39.923905,-82.87008,39.93844,-82.84829,1.53,At I-70/US-40/Main St/Exit 43 - Accident.,,Outerbelt N,R,Columbus,Franklin,OH,43232,US,US/Eastern,KCMH,2016-02-10 09:07:00,15.8,3.4,79.0,29.9,1.0,WSW,10.4,0.01,Light Snow,False,False,False,False,False,False,False,False,False,False,False,False,False,Day,Day,Day,Day
62,A-2716662,2,2016-02-10 09:34:38,2016-02-10 15:34:38,41.035566,-81.569917,41.036015,-81.579895,0.521,At OH-619/Wooster Rd/Exit 17 - Accident.,,I-76 W,R,Akron,Summit,OH,44314,US,US/Eastern,KAKR,2016-02-10 09:46:00,21.0,6.6,74.0,29.79,1.5,WSW,17.3,0.0,Light Snow,False,False,False,False,True,False,False,False,False,False,False,False,False,Day,Day,Day,Day
63,A-2716663,3,2016-02-10 10:18:13,2016-02-10 16:18:13,39.9239,-83.68767,39.93271,-83.61197,4.057,Between US-40/Exit 62 and OH-54/Exit 66 - Accident.,,E National Rd,R,South Charleston,Clark,OH,45368,US,US/Eastern,KSGH,2016-02-10 10:15:00,15.8,0.3,79.0,29.94,2.0,WSW,16.1,0.0,Light Snow,False,False,False,False,False,False,False,False,False,False,False,False,False,Day,Day,Day,Day
64,A-2716664,2,2016-02-10 10:21:52,2016-02-10 16:21:52,41.851914,-80.175232,41.858231,-80.176444,0.441,At US-6/Exit 166 - Accident.,,I-79 N,R,Edinboro,Erie,PA,16412,US,US/Eastern,KERI,2016-02-10 10:16:00,24.1,12.5,77.0,29.72,0.8,West,12.7,0.04,Light Snow,False,False,False,False,False,False,False,False,False,False,False,False,False,Day,Day,Day,Day
65,A-2716665,2,2016-02-10 10:47:49,2016-02-10 16:47:49,39.93849,-82.84849,39.89923,-82.90135,3.899,Between I-70/US-40/Main St/Exit 43 and US-33/Exit 46 - Accident.,,Outerbelt S,R,Columbus,Franklin,OH,43232,US,US/Eastern,KCMH,2016-02-10 10:51:00,17.1,3.0,77.0,29.96,1.5,West,13.8,0.0,Light Snow,False,False,False,False,False,False,False,False,False,False,False,False,False,Day,Day,Day,Day
66,A-2716666,2,2016-02-10 11:09:08,2016-02-10 17:09:08,38.96943,-80.1096,39.00263,-80.22647,6.683,At Talbott Rd - Accident.,,US-33 E,R,Buckhannon,Upshur,WV,26201,US,US/Eastern,KW22,2016-02-10 11:15:00,15.8,,79.0,29.87,6.0,Calm,,,Light Snow,False,False,False,False,False,False,False,False,False,False,False,False,False,Day,Day,Day,Day
67,A-2716667,2,2016-02-10 11:09:08,2016-02-10 17:09:08,39.00248,-80.22624,38.96911,-80.11072,6.619,At Talbott Rd - Accident.,,US-33 E,R,Buckhannon,Upshur,WV,26201,US,US/Eastern,KW22,2016-02-10 11:15:00,15.8,,79.0,29.87,6.0,Calm,,,Light Snow,False,False,False,False,False,False,False,False,False,False,False,False,False,Day,Day,Day,Day
68,A-2716668,2,2016-02-10 11:55:16,2016-02-10 17:55:16,41.66805,-83.57063,41.66553,-83.56532,0.325,At US-24/Detroit Ave/Exit 203 - Accident.,,I-75 S,R,Toledo,Lucas,OH,43606,US,US/Eastern,KDUH,2016-02-10 11:55:00,21.9,12.5,68.0,29.87,10.0,NW,8.1,,Overcast,False,False,False,False,False,False,False,False,False,False,False,False,False,Day,Day,Day,Day
69,A-2716669,2,2016-02-10 12:54:39,2016-02-10 18:54:39,41.48339,-81.66297,41.47692,-81.66075,0.462,At I-490/Exit 161 - Accident.,3937.0, Iron Ct,L,Cleveland,Cuyahoga,OH,44115,US,US/Eastern,KBKL,2016-02-10 12:53:00,24.1,7.1,75.0,29.82,2.0,West,28.8,0.0,Light Snow,False,False,False,False,False,False,False,False,False,False,False,False,False,Day,Day,Day,Day
70,A-2716670,3,2016-02-10 13:34:10,2016-02-10 19:34:10,41.50127,-81.4804,41.50311,-81.47745,0.199,At Brainard Rd/Cedar Rd/Exit 32 - Accident.,,I-271 N,R,Cleveland,Cuyahoga,OH,44124,US,US/Eastern,KCGF,2016-02-10 13:45:00,24.8,11.9,80.0,29.8,1.5,West,16.1,,Light Snow,False,False,False,False,False,False,False,False,False,False,False,False,False,Day,Day,Day,Day
71,A-2716671,4,2016-02-10 13:59:39,2016-02-10 19:59:39,39.789093,-82.989106,39.72395,-82.9867,4.503,Closed between OH-762/Duvall Rd and OH-752 - Road closed due to accident.,9935.0, US Highway 23,R,Lockbourne,Franklin,OH,43137-9656,US,US/Eastern,KLCK,2016-02-10 13:55:00,18.0,2.6,81.0,29.95,1.5,West,17.3,,Light Snow,False,False,False,False,False,False,False,False,False,False,False,False,False,Day,Day,Day,Day
72,A-2716672,4,2016-02-10 14:57:58,2016-02-10 20:57:58,41.67073,-81.24561,41.71039,-81.17253,4.661,Closed between OH-44/Exit 200 and Vrooman Rd/Exit 205 - Road closed due to accident.,,I-90 E,R,Painesville,Lake,OH,44077,US,US/Eastern,KCGF,2016-02-10 14:45:00,19.4,5.0,86.0,29.82,3.0,WNW,16.1,,Light Snow,False,False,False,False,False,False,False,False,False,False,False,False,False,Day,Day,Day,Day
73,A-2716673,4,2016-02-10 14:59:15,2016-02-10 20:59:15,41.70846,-81.17636,41.66819,-81.25265,4.82,Closed between Vrooman Rd/Exit 205 and OH-44/Exit 200 - Road closed due to accident.,,I-90 W,R,Painesville,Lake,OH,44077,US,US/Eastern,KCGF,2016-02-10 14:45:00,19.4,5.0,86.0,29.82,3.0,WNW,16.1,,Light Snow,False,False,False,False,False,False,False,False,False,False,False,False,False,Day,Day,Day,Day
74,A-2716674,2,2016-02-10 15:31:15,2016-02-10 21:31:15,41.44246,-81.78485,41.4453,-81.77379,0.606,At 130th St/Bellaire Rd/Exit 242 - Accident. in the right lane.,,I-71 N,R,Cleveland,Cuyahoga,OH,44135,US,US/Eastern,KCLE,2016-02-10 15:35:00,21.9,11.0,63.0,29.86,5.0,West,10.4,0.0,Light Snow,False,False,False,False,False,False,False,False,False,False,False,False,False,Day,Day,Day,Day
75,A-2716675,2,2016-02-10 15:31:15,2016-02-10 21:31:15,39.77128,-84.1923,39.76697,-84.19893,0.461,At OH-48/Grand Ave/Exit 54 - Accident. in the right lane.,,I-75 S,R,Dayton,Montgomery,OH,45405,US,US/Eastern,KDAY,2016-02-10 15:56:00,16.0,-0.4,65.0,30.03,10.0,West,18.4,,Overcast,False,False,False,False,False,False,False,False,False,False,False,False,False,Day,Day,Day,Day
76,A-2716676,2,2016-02-10 15:31:15,2016-02-10 21:31:15,41.50499,-81.47417,41.49859,-81.48381,0.667,At Brainard Rd/Cedar Rd/Exit 32 - Accident. in the right lane.,,Outerbelt East Fwy S,R,Cleveland,Cuyahoga,OH,44124,US,US/Eastern,KCGF,2016-02-10 15:45:00,21.2,7.3,74.0,29.83,7.0,NNW,16.1,,Overcast,False,False,False,False,False,False,False,False,False,False,False,False,False,Day,Day,Day,Day
77,A-2716677,4,2016-02-10 16:06:41,2016-02-10 22:06:41,40.109653,-80.2029,40.020034,-80.175188,6.363,Closed between US-19/Exit 30 and Ten Mile Rd/Exit 23 - Road closed due to accident.,,I-79 S,R,Washington,Washington,PA,15301,US,US/Eastern,KAFJ,2016-02-10 16:15:00,19.4,6.6,74.0,29.84,3.0,SW,12.7,,Overcast,False,False,False,False,False,False,False,False,False,False,False,False,False,Day,Day,Day,Day
78,A-2716678,2,2016-02-10 17:01:25,2016-02-10 23:01:25,38.38852,-81.7687,38.39031,-81.76928,0.128,At WV-25/Exit 50 - Accident.,,I-64 W,R,Dunbar,Kanawha,WV,25064,US,US/Eastern,KCRW,2016-02-10 16:54:00,21.0,7.6,57.0,30.02,9.0,West,15.0,0.0,Light Snow,False,False,False,False,False,False,False,False,False,False,False,False,False,Day,Day,Day,Day
79,A-2716679,2,2016-02-10 17:30:32,2016-02-10 23:30:32,41.03572,-81.57809,41.04078,-81.61203,1.803,Between OH-619/Wooster Rd/Exit 17 and Barber Rd/Exit 16 - Accident. in the left lane.,,N Wooster Rd,R,Akron,Summit,OH,44314,US,US/Eastern,KAKR,2016-02-10 17:36:00,19.9,11.1,81.0,29.86,3.0,West,6.9,0.0,Light Snow,False,False,False,False,False,False,False,False,False,False,False,False,False,Day,Day,Day,Day
80,A-2716680,2,2016-02-10 21:05:16,2016-02-11 03:05:16,41.47487,-81.72095,41.47442,-81.71182,0.474,At 41st St/Exit 169 - Accident. in the right lane.,,I-90 E,R,Cleveland,Cuyahoga,OH,44102,US,US/Eastern,KBKL,2016-02-10 21:05:00,21.9,4.8,68.0,29.92,1.8,West,26.5,0.0,Light Snow,False,False,False,False,False,False,False,False,False,False,False,False,False,Night,Night,Night,Night
81,A-2716681,4,2016-02-11 05:25:17,2016-02-11 11:25:17,41.62845,-84.80559,41.62873,-84.80369,0.1,Closed at Ohio/Indiana State Line - Road closed due to accident.,,I-90 E,R,Angola,Steuben,IN,46703,US,US/Eastern,KANQ,2016-02-11 05:35:00,12.2,6.1,92.0,30.09,9.0,West,3.5,,Overcast,False,False,False,False,False,False,False,False,False,False,False,False,False,Night,Night,Night,Night
82,A-2716682,4,2016-02-11 05:25:17,2016-02-11 11:25:17,41.62894,-84.80373,41.62866,-84.80562,0.1,Closed at I-69/US-27/Exit 144 - Road closed due to accident.,,I-80 W,R,Edon,Williams,OH,43518,US,US/Eastern,KANQ,2016-02-11 05:35:00,12.2,6.1,92.0,30.09,9.0,West,3.5,,Overcast,False,False,False,False,False,False,False,False,False,False,False,False,False,Night,Night,Night,Night
83,A-2716683,3,2016-02-11 05:35:40,2016-02-11 11:35:40,41.16102,-81.78573,41.15666,-81.78646,0.304,At I-271/Exit 220 - Accident.,,I-71 S,R,Medina,Medina,OH,44256,US,US/Eastern,KCLE,2016-02-11 05:51:00,14.0,0.5,56.0,30.14,9.0,NW,11.5,0.0,Light Snow,False,False,False,False,False,False,False,False,False,False,False,False,False,Night,Night,Night,Night
84,A-2716684,4,2016-02-11 06:25:19,2016-02-11 12:25:19,41.628232,-84.808858,41.735609,-84.982632,11.638,Closed between Indiana/Ohio State Line and I-69/US-27/Exit 144 - Road closed due to accident.,,I-80 W,R,Angola,Steuben,IN,46703,US,US/Eastern,KANQ,2016-02-11 06:35:00,12.2,4.3,92.0,30.12,10.0,WNW,4.6,,Overcast,False,False,False,False,False,False,False,False,False,False,False,False,False,Night,Night,Night,Day
85,A-2716685,4,2016-02-11 06:25:19,2016-02-11 12:25:19,41.62986,-84.76619,41.62866,-84.80562,2.038,Closed between OH-49/Exit 2 and Indiana/Ohio State Line - Road closed due to accident.,,I-80 W,R,Edon,Williams,OH,43518,US,US/Eastern,KANQ,2016-02-11 06:35:00,12.2,4.3,92.0,30.12,10.0,WNW,4.6,,Overcast,False,False,False,False,False,False,False,False,False,False,False,False,False,Night,Night,Night,Day
86,A-2716686,2,2016-02-11 06:26:40,2016-02-11 12:26:40,39.74729,-84.21426,39.74876,-84.20146,0.688,At I-75 - Accident.,534.0, S Broadway St,L,Dayton,Montgomery,OH,45417-3466,US,US/Eastern,KDAY,2016-02-11 05:56:00,7.0,-5.7,87.0,30.22,10.0,West,8.1,,Scattered Clouds,False,False,False,False,False,False,False,False,False,False,False,False,False,Night,Night,Night,Day
87,A-2716687,2,2016-02-11 06:35:24,2016-02-11 12:35:24,41.42099,-81.69052,41.411,-81.66885,1.318,At OH-176/OH-17/Exit 17 - Accident.,,I-480 E,R,Cleveland,Cuyahoga,OH,44109,US,US/Eastern,KBKL,2016-02-11 06:53:00,17.1,-0.3,59.0,30.12,10.0,NW,21.9,,Overcast,False,False,False,False,False,False,False,False,False,False,False,False,False,Night,Night,Day,Day
88,A-2716688,3,2016-02-11 06:53:49,2016-02-11 12:53:49,41.42318,-81.84674,41.42192,-81.8429,0.217,At Grayton Rd/Exit 9 - Accident.,,I-480 E,R,Cleveland,Cuyahoga,OH,44135,US,US/Eastern,KCLE,2016-02-11 06:51:00,14.0,-2.0,56.0,30.16,9.0,NW,16.1,0.0,Mostly Cloudy,False,False,False,False,False,False,False,False,False,False,False,False,False,Night,Night,Day,Day
89,A-2716689,3,2016-02-11 06:53:49,2016-02-11 12:53:49,38.79691,-84.48273,38.80878,-84.49638,1.101,Between Crittenden and Visalia - Accident.,15983.0, Madison Pike,R,De Mossville,Pendleton,KY,41033-9698,US,US/Eastern,KCVG,2016-02-11 06:52:00,12.0,4.1,77.0,30.24,10.0,West,4.6,,Overcast,False,False,False,False,False,False,False,False,False,False,False,False,False,Night,Night,Day,Day
90,A-2716690,3,2016-02-11 06:53:49,2016-02-11 12:53:49,38.80878,-84.49638,38.79691,-84.48273,1.101,Between Visalia and Crittenden - Accident.,,Madison Pike,R,De Mossville,Kenton,KY,41033,US,US/Eastern,KCVG,2016-02-11 06:52:00,12.0,4.1,77.0,30.24,10.0,West,4.6,,Overcast,False,False,False,False,False,False,False,False,False,False,False,False,False,Night,Night,Day,Day
91,A-2716691,3,2016-02-11 07:22:41,2016-02-11 13:22:41,38.30155,-85.85499,38.30011,-85.84846,0.368,At I-265/Exit 121 - Accident.,,US-150 E,R,New Albany,Floyd,IN,47150,US,US/Eastern,KLOU,2016-02-11 06:53:00,21.0,12.4,60.0,30.27,10.0,North,6.9,,Overcast,False,False,False,False,False,False,False,False,False,False,False,False,False,Night,Day,Day,Day
92,A-2716692,2,2016-02-11 07:20:03,2016-02-11 13:20:03,38.33667,-81.65623,38.33614,-81.65623,0.037,Between Smith Rd and Tennis Club Rd - Accident.,207.0, Oakwood Rd,L,Charleston,Kanawha,WV,25314-2347,US,US/Eastern,KCRW,2016-02-11 06:54:00,16.0,5.3,59.0,30.22,10.0,West,8.1,0.0,Mostly Cloudy,False,False,False,False,False,False,False,False,False,False,False,False,False,Night,Day,Day,Day
93,A-2716693,2,2016-02-11 07:20:03,2016-02-11 13:20:03,38.33614,-81.65623,38.33667,-81.65623,0.037,Between Tennis Club Rd and Smith Rd - Accident.,201.0, Oakwood Rd,L,Charleston,Kanawha,WV,25314-2335,US,US/Eastern,KCRW,2016-02-11 06:54:00,16.0,5.3,59.0,30.22,10.0,West,8.1,0.0,Mostly Cloudy,False,False,False,False,False,False,False,False,False,False,False,False,False,Night,Day,Day,Day
94,A-2716694,2,2016-02-11 07:29:07,2016-02-11 13:29:07,41.0961,-81.58593,41.10186,-81.59001,0.451,At White Pond Dr/Mull Ave/Exit 132 - Accident.,,I-77 N,R,Akron,Summit,OH,44320,US,US/Eastern,KAKR,2016-02-11 07:28:00,12.0,0.5,80.0,30.08,2.0,West,8.1,0.0,Light Snow,False,False,False,False,True,False,False,False,False,False,False,False,False,Day,Day,Day,Day
95,A-2716695,3,2016-02-11 07:45:24,2016-02-11 13:45:24,41.12155,-85.18716,41.119121,-85.189639,0.212,At US-30/US-33/IN-930/Exit 109 - Accident.,,US-30 E,R,Fort Wayne,Allen,IN,46808,US,US/Eastern,KFWA,2016-02-11 07:54:00,15.1,4.2,70.0,30.25,10.0,West,8.1,0.0,Mostly Cloudy,False,False,False,False,False,False,False,False,False,False,False,False,False,Day,Day,Day,Day
96,A-2716696,3,2016-02-11 07:45:23,2016-02-11 13:45:23,38.829993,-80.667067,38.806587,-80.662776,1.634,At US-19/Exit 67 - Accident.,,I-79 S,R,Burnsville,Braxton,WV,26335,US,US/Eastern,K48I,2016-02-11 07:53:00,12.0,-3.0,73.0,28.83,10.0,W,13.0,0.0,Cloudy,False,False,False,False,False,False,False,False,False,False,False,False,False,Day,Day,Day,Day
97,A-2716697,2,2016-02-11 07:47:57,2016-02-11 13:47:57,40.05642,-83.03097,40.05456,-83.03166,0.134,At Henderson Rd - Accident.,,Olentangy Fwy S,R,Columbus,Franklin,OH,43214,US,US/Eastern,KOSU,2016-02-11 07:53:00,9.0,-3.2,84.0,30.24,10.0,West,8.1,,Overcast,False,False,False,False,False,False,False,False,False,False,False,False,False,Day,Day,Day,Day
98,A-2716698,2,2016-02-11 07:47:57,2016-02-11 13:47:57,41.37717,-81.5139,41.36828,-81.51647,0.629,At Broadway Ave/Forbes Rd/Exit 23 - Accident.,,I-480 E,R,Bedford,Cuyahoga,OH,44146,US,US/Eastern,KBKL,2016-02-11 07:53:00,18.0,-0.5,57.0,30.14,10.0,WNW,26.5,,Overcast,False,False,False,False,False,False,False,False,False,False,False,False,False,Day,Day,Day,Day
99,A-2716699,2,2016-02-11 07:58:15,2016-02-11 13:58:15,39.17397,-84.49031,39.1765,-84.48757,0.228,At OH-562/Exit 7 - Accident.,,I-75 N,R,Cincinnati,Hamilton,OH,45237,US,US/Eastern,KLUK,2016-02-11 07:53:00,15.1,9.4,68.0,30.31,10.0,WNW,3.5,,Clear,False,False,False,False,False,False,False,False,False,False,False,False,False,Day,Day,Day,Day
100,A-2716700,2,2016-02-11 08:28:42,2016-02-11 14:28:42,39.75513,-84.16614,39.75424,-84.15598,0.543,At Steve Whalen Blvd - Accident.,,US-35 E,R,Dayton,Montgomery,OH,45410,US,US/Eastern,KFFO,2016-02-11 08:58:00,9.1,-0.7,83.0,30.3,10.0,South,5.8,,Mostly Cloudy,False,False,False,False,False,False,False,False,False,False,False,False,False,Day,Day,Day,Day
101,A-2716701,2,2016-02-11 08:40:21,2016-02-11 14:40:21,39.17397,-84.49031,39.1765,-84.48757,0.228,At OH-562/Exit 7 - Accident.,,I-75 N,R,Cincinnati,Hamilton,OH,45237,US,US/Eastern,KLUK,2016-02-11 08:53:00,17.1,10.0,62.0,30.33,10.0,WNW,4.6,,Clear,False,False,False,False,False,False,False,False,False,False,False,False,False,Day,Day,Day,Day
102,A-2716702,2,2016-02-11 08:42:57,2016-02-11 14:42:57,41.12624,-81.65299,41.11921,-81.63658,0.983,Between OH-21/Exit 136 and Cleveland Massillon Rd/Exit 135 - Accident.,,I-77 S,R,Akron,Summit,OH,44321,US,US/Eastern,KAKR,2016-02-11 08:54:00,12.0,-4.0,77.0,30.17,9.0,West,15.0,0.0,,False,False,False,False,False,False,False,False,False,False,False,False,False,Day,Day,Day,Day
103,A-2716703,2,2016-02-11 08:47:51,2016-02-11 14:47:51,38.33667,-81.65623,38.33667,-81.65623,0.0,At Smith Rd - Accident.,207.0, Oakwood Rd,L,Charleston,Kanawha,WV,25314-2347,US,US/Eastern,KCRW,2016-02-11 08:54:00,17.1,8.7,56.0,30.28,10.0,West,5.8,,Scattered Clouds,False,False,False,False,False,False,False,False,False,False,False,False,False,Day,Day,Day,Day
104,A-2716704,2,2016-02-11 08:50:25,2016-02-11 14:50:25,41.10389,-81.5,41.10123,-81.50007,0.184,At OH-261/E Tallmadge Ave - Accident.,,OH-59 S,R,Akron,Summit,OH,44310,US,US/Eastern,KAKR,2016-02-11 08:54:00,12.0,-4.0,77.0,30.17,9.0,West,15.0,0.0,,False,False,False,False,False,False,False,False,False,False,False,False,False,Day,Day,Day,Day
105,A-2716705,2,2016-02-11 09:06:59,2016-02-11 15:06:59,39.16417,-84.45275,39.16359,-84.44952,0.178,At US-22/OH-3/OH-561 - Accident.,,Norwood Lateral Expy E,R,Cincinnati,Hamilton,OH,45212,US,US/Eastern,KLUK,2016-02-11 08:53:00,17.1,10.0,62.0,30.33,10.0,WNW,4.6,,Clear,False,False,False,False,False,False,False,False,False,False,False,False,False,Day,Day,Day,Day
106,A-2716706,2,2016-02-11 09:37:48,2016-02-11 15:37:48,40.11184,-83.00883,40.1123,-83.03781,1.532,Between US-23/Exit 23 and OH-315/Olentangy Riv Rd/Exit 22 - Accident.,,Outerbelt W,R,Columbus,Franklin,OH,43235,US,US/Eastern,KOSU,2016-02-11 09:53:00,15.1,7.7,77.0,30.28,10.0,West,4.6,,Overcast,False,False,False,False,False,False,False,False,False,False,False,False,False,Day,Day,Day,Day
107,A-2716707,2,2016-02-11 09:41:40,2016-02-11 15:41:40,38.31922,-85.75302,38.32946,-85.75373,0.709,At US-31/IN-131/Exit 4 - Accident.,,I-65 N,R,Clarksville,Clark,IN,47129,US,US/Eastern,KLOU,2016-02-11 09:53:00,23.0,,55.0,30.34,10.0,Calm,,,Clear,False,False,False,False,True,False,False,False,False,False,False,True,False,Day,Day,Day,Day
108,A-2716708,3,2016-02-11 10:33:42,2016-02-11 16:33:42,39.09881,-84.50801,39.10414,-84.50438,0.417,At US-50/Exit 1 - Accident.,,I-71 N,R,Cincinnati,Hamilton,OH,45202,US,US/Eastern,KLUK,2016-02-11 10:53:00,19.0,13.9,62.0,30.35,10.0,SSE,3.5,,Scattered Clouds,False,False,False,False,True,False,False,False,False,False,True,False,False,Day,Day,Day,Day
109,A-2716709,3,2016-02-11 10:33:42,2016-02-11 16:33:42,41.473859,-81.708409,41.47391,-81.703564,0.251,Between 41st St/Exit 169 and I-71/I-90/OH-176/Exit 170 - Accident.,,I-90 E,R,Cleveland,Cuyahoga,OH,44113,US,US/Eastern,KBKL,2016-02-11 10:53:00,19.0,2.0,62.0,30.2,9.0,WNW,23.0,,Overcast,False,False,False,False,False,False,False,False,False,False,False,False,False,Day,Day,Day,Day
110,A-2716710,2,2016-02-11 11:42:07,2016-02-11 17:42:07,41.039988,-81.565332,41.039994,-81.565332,0.0,At Exit 18 - Accident.,,I-76 W,R,Akron,Summit,OH,44314,US,US/Eastern,KAKR,2016-02-11 11:54:00,16.0,1.7,74.0,30.22,2.0,West,13.8,0.0,Light Snow,False,False,False,False,False,False,False,False,False,False,False,False,False,Day,Day,Day,Day
111,A-2716711,3,2016-02-11 12:02:32,2016-02-11 18:02:32,41.73565,-84.99082,41.73569,-84.99399,0.163,At I-69/US-27/Exit 144 - Accident.,,I-80 W,R,Fremont,Steuben,IN,46737,US,US/Eastern,KANQ,2016-02-11 11:55:00,17.6,9.3,63.0,30.23,10.0,NW,5.8,,Mostly Cloudy,False,False,False,False,False,False,False,False,False,False,False,False,False,Day,Day,Day,Day
112,A-2716712,2,2016-02-11 11:58:42,2016-02-11 17:58:42,39.26566,-84.43965,39.27422,-84.44023,0.592,At Sharon Rd/Exit 15 - Accident.,,I-75 N,R,Cincinnati,Hamilton,OH,45241,US,US/Eastern,KHAO,2016-02-11 11:53:00,21.0,13.4,48.0,30.35,10.0,West,5.8,,Clear,False,False,False,False,False,False,False,False,False,False,False,False,False,Day,Day,Day,Day
113,A-2716713,2,2016-02-11 12:12:31,2016-02-11 18:12:31,41.46981,-81.81104,41.4716,-81.81916,0.438,At McKinley Ave/Exit 164 - Accident.,,Northwest Fwy W,R,Lakewood,Cuyahoga,OH,44107,US,US/Eastern,KCLE,2016-02-11 11:51:00,16.0,2.3,71.0,30.26,2.0,WNW,12.7,0.0,Light Snow,False,False,False,False,False,False,False,False,False,False,False,False,False,Day,Day,Day,Day
114,A-2716714,2,2016-02-11 13:25:43,2016-02-11 19:25:43,41.25666,-81.63157,41.25666,-81.63157,0.0,At OH-21/Brecksville Rd/Exit 145 - Accident.,,OH-21 N,R,Richfield,Summit,OH,44286,US,US/Eastern,KCLE,2016-02-11 13:31:00,17.1,5.0,71.0,30.22,2.0,West,10.4,0.0,Light Snow,False,False,False,False,False,False,False,False,False,False,False,False,False,Day,Day,Day,Day
115,A-2716715,2,2016-02-11 13:30:58,2016-02-11 19:30:58,40.58919,-80.09885,40.58919,-80.09885,0.0,At I-279/Exit 72 - Accident.,2400.0, Rochester Rd,L,Sewickley,Allegheny,PA,15143-8606,US,US/Eastern,KPIT,2016-02-11 13:51:00,16.0,-1.7,54.0,30.21,10.0,West,21.9,0.0,Mostly Cloudy,False,False,False,False,False,False,False,False,False,False,False,False,False,Day,Day,Day,Day
116,A-2716716,2,2016-02-11 13:56:40,2016-02-11 19:56:40,41.06356,-81.49078,41.06203,-81.504711,0.733,Between Arlington St and I-77/OH-8/Exit 23 - Accident.,332.0, S Arlington St,R,Akron,Summit,OH,44306-1332,US,US/Eastern,KAKR,2016-02-11 13:54:00,19.0,3.2,52.0,30.21,10.0,WNW,19.6,,Overcast,False,False,False,False,False,False,False,False,False,False,False,True,False,Day,Day,Day,Day
117,A-2716717,2,2016-02-11 13:56:40,2016-02-11 19:56:40,41.06218,-81.50595,41.06247,-81.51023,0.224,At I-77/OH-8/Exit 23 - Accident.,,I-76 W,R,Akron,Summit,OH,44311,US,US/Eastern,KAKR,2016-02-11 13:54:00,19.0,3.2,52.0,30.21,10.0,WNW,19.6,,Overcast,False,False,False,False,False,False,False,False,False,False,False,False,False,Day,Day,Day,Day
118,A-2716718,2,2016-02-11 14:53:15,2016-02-11 20:53:15,39.17736,-84.4873,39.1737,-84.49092,0.319,At OH-562/Exit 7 - Accident.,,I-75 S,R,Cincinnati,Hamilton,OH,45237,US,US/Eastern,KLUK,2016-02-11 14:53:00,25.0,18.1,46.0,30.32,10.0,WNW,5.8,0.0,Partly Cloudy,False,False,False,False,False,False,False,False,False,False,False,False,False,Day,Day,Day,Day
119,A-2716719,2,2016-02-11 15:08:42,2016-02-11 21:08:42,38.33956,-81.60992,38.34442,-81.61366,0.392,At US-114/Greenbrier St/Exit 99 - Accident.,,I-77 N,R,Charleston,Kanawha,WV,25311,US,US/Eastern,KCRW,2016-02-11 14:54:00,23.0,15.8,42.0,30.26,10.0,West,5.8,,Mostly Cloudy,False,False,False,False,True,False,False,False,False,False,False,False,False,Day,Day,Day,Day
120,A-2716720,2,2016-02-11 15:34:43,2016-02-11 21:34:43,41.47889,-81.6934,41.4743,-81.69724,0.374,At I-71/I-90/OH-176/Exit 170 - Accident. in the right lane.,,I-71 S,R,Cleveland,Cuyahoga,OH,44113,US,US/Eastern,KBKL,2016-02-11 15:53:00,19.9,3.2,60.0,30.26,9.0,NW,23.0,0.0,Light Snow,False,False,False,False,False,False,False,False,False,False,False,False,False,Day,Day,Day,Day
121,A-2716721,2,2016-02-11 16:56:28,2016-02-11 22:56:28,40.58919,-80.09885,40.58919,-80.09885,0.0,At I-279/Exit 72 - Accident.,2400.0, Rochester Rd,L,Sewickley,Allegheny,PA,15143-8606,US,US/Eastern,KPIT,2016-02-11 16:51:00,17.1,1.5,50.0,30.27,10.0,West,17.3,0.0,Mostly Cloudy,False,False,False,False,False,False,False,False,False,False,False,False,False,Day,Day,Day,Day
122,A-2716722,2,2016-02-11 17:02:59,2016-02-11 23:02:59,41.41119,-81.64414,41.41367,-81.64345,0.175,Ramp to Exit 155 - Accident.,,I-77 N,R,Independence,Cuyahoga,OH,44131,US,US/Eastern,KBKL,2016-02-11 16:53:00,19.9,6.2,60.0,30.27,9.0,WNW,15.0,0.0,Light Snow,False,False,False,False,False,False,False,False,False,False,False,False,False,Day,Day,Day,Day
123,A-2716723,2,2016-02-11 17:15:22,2016-02-11 23:15:22,39.24907,-84.44562,39.25414,-84.44331,0.371,At OH-126/Exit 14 - Accident. in the middle lane.,,I-75 N,R,Cincinnati,Hamilton,OH,45215,US,US/Eastern,KLUK,2016-02-11 16:53:00,25.0,18.1,41.0,30.35,10.0,WNW,5.8,,Clear,False,False,False,False,False,False,False,False,False,False,False,False,False,Day,Day,Day,Day
124,A-2716724,2,2016-02-11 17:15:22,2016-02-11 23:15:22,39.28775,-84.40073,39.29005,-84.39123,0.532,At US-42/Exit 46 - Accident. in the middle lane.,,I-275 E,R,Cincinnati,Hamilton,OH,45241,US,US/Eastern,KHAO,2016-02-11 16:53:00,25.0,19.3,41.0,30.35,10.0,NW,4.6,,Scattered Clouds,False,False,False,False,False,False,False,False,False,False,False,False,False,Day,Day,Day,Day
125,A-2716725,2,2016-02-11 17:16:39,2016-02-11 23:16:39,41.47379,-81.89631,41.46866,-81.95449,3.033,Between OH-252/Columbia Rd/Exit 159 and Crocker Rd/Exit 156 - Accident.,,Northwest Fwy W,R,Westlake,Cuyahoga,OH,44145,US,US/Eastern,KCLE,2016-02-11 17:22:00,18.0,7.7,65.0,30.27,2.5,WNW,8.1,0.0,Light Snow,False,False,False,False,False,False,False,False,False,False,False,False,False,Day,Day,Day,Day
126,A-2716726,2,2016-02-11 17:16:39,2016-02-11 23:16:39,41.54941,-81.60676,41.5525,-81.60025,0.399,At Eddy Rd/Exit 178 - Accident. in the right lane.,,OH-283 W,R,Cleveland,Cuyahoga,OH,44108,US,US/Eastern,KBKL,2016-02-11 16:53:00,19.9,6.2,60.0,30.27,9.0,WNW,15.0,0.0,Light Snow,False,False,False,False,False,False,False,False,False,False,False,False,False,Day,Day,Day,Day
127,A-2716727,2,2016-02-11 18:01:57,2016-02-12 00:01:57,39.03347,-84.603,39.01946,-84.62035,1.343,At KY-236/Exit 184 - Accident. in the left lane.,,I-75 S,R,Erlanger,Kenton,KY,41018,US,US/Eastern,KCVG,2016-02-11 17:52:00,24.1,,42.0,30.32,10.0,Calm,,,Scattered Clouds,False,False,False,False,False,False,False,False,False,False,False,False,False,Day,Day,Day,Day
128,A-2716728,2,2016-02-11 18:34:41,2016-02-12 00:34:41,39.74903,-84.20106,39.74733,-84.21301,0.646,At I-75 - Accident. in the middle lane.,,US-35 W,R,Dayton,Montgomery,OH,45417,US,US/Eastern,KDAY,2016-02-11 18:56:00,18.0,12.7,65.0,30.35,10.0,North,3.5,,Mostly Cloudy,False,False,False,False,True,False,False,False,False,False,False,False,False,Night,Day,Day,Day
129,A-2716729,2,2016-02-11 18:33:23,2016-02-12 00:33:23,39.89473,-83.044,39.89642,-83.04687,0.192,Ramp to Exit 101 - Accident. in the left lane.,,Outerbelt E,R,Grove City,Franklin,OH,43123,US,US/Eastern,KTZR,2016-02-11 18:35:00,16.5,9.4,70.0,30.29,10.0,WSW,4.6,,Mostly Cloudy,False,False,False,False,False,False,False,False,False,False,False,False,False,Night,Night,Day,Day
130,A-2716730,2,2016-02-11 19:11:02,2016-02-12 01:11:02,39.19641,-84.47331,39.19334,-84.47698,0.289,At OH-4/Paddock Rd/Exit 9 - Accident. in the right lane.,,I-75 N,R,Cincinnati,Hamilton,OH,45237,US,US/Eastern,KLUK,2016-02-11 18:53:00,21.0,14.6,48.0,30.37,10.0,North,4.6,,Clear,False,False,False,False,True,False,False,False,False,False,False,False,False,Night,Night,Night,Day
131,A-2716731,2,2016-02-11 19:12:21,2016-02-12 01:12:21,39.22461,-84.45364,39.22518,-84.45309,0.049,At Davis St/Wyoming Ave/Exit 12 - Accident. in the right lane.,,I-75 S,R,Cincinnati,Hamilton,OH,45215,US,US/Eastern,KLUK,2016-02-11 18:53:00,21.0,14.6,48.0,30.37,10.0,North,4.6,,Clear,False,False,False,False,False,False,False,False,False,False,False,False,False,Night,Night,Night,Day
132,A-2716732,2,2016-02-11 19:16:19,2016-02-12 01:16:19,39.15306,-84.44283,39.15524,-84.44117,0.175,At OH-561/Exit 6 - Accident. in the right lane.,,I-71 N,R,Cincinnati,Hamilton,OH,45209,US,US/Eastern,KLUK,2016-02-11 18:53:00,21.0,14.6,48.0,30.37,10.0,North,4.6,,Clear,False,False,False,False,False,False,False,False,False,False,False,False,False,Night,Night,Night,Day
133,A-2716733,2,2016-02-11 19:21:41,2016-02-12 01:21:41,39.97262,-82.98368,39.97033,-82.98413,0.16,At I-670/Spring St/Long St/Exit 109A - Accident. in the right lane.,,North Fwy S,R,Columbus,Franklin,OH,43203,US,US/Eastern,KCMH,2016-02-11 19:51:00,17.1,11.7,62.0,30.35,10.0,SW,3.5,0.0,Mostly Cloudy,False,False,False,False,False,False,False,False,False,False,False,False,False,Night,Night,Night,Day
134,A-2716734,4,2016-02-11 19:57:31,2016-02-12 01:57:31,40.535447,-80.03596,40.529455,-80.03507,0.417,Closed at Perry Ln - Road closed due to accident.,948.0, Perry Hwy,R,Pittsburgh,Allegheny,PA,15237-2107,US,US/Eastern,KPIT,2016-02-11 19:51:00,12.9,3.8,51.0,30.33,10.0,West,5.8,,Scattered Clouds,False,False,True,False,False,False,False,False,False,False,False,False,False,Night,Night,Night,Night
135,A-2716735,4,2016-02-11 19:57:31,2016-02-12 01:57:31,40.529455,-80.03507,40.535447,-80.03596,0.417,Closed at Schars Ln - Road closed due to accident.,770.0, Perry Hwy,R,Pittsburgh,Allegheny,PA,15229-1160,US,US/Eastern,KPIT,2016-02-11 19:51:00,12.9,3.8,51.0,30.33,10.0,West,5.8,,Scattered Clouds,False,False,False,False,False,False,False,False,False,False,False,False,False,Night,Night,Night,Night
136,A-2716736,2,2016-02-11 19:58:48,2016-02-12 01:58:48,41.49647,-81.67733,41.49495,-81.68196,0.262,At I-77/19th St/Exit 172 - Accident. in the right lane.,,I-90 W,R,Cleveland,Cuyahoga,OH,44115,US,US/Eastern,KBKL,2016-02-11 19:53:00,19.0,8.2,68.0,30.3,9.0,SSW,9.2,0.0,Light Snow,False,False,False,False,False,False,False,False,False,False,False,False,False,Night,Night,Night,Night
137,A-2716737,2,2016-02-11 20:09:17,2016-02-12 02:09:17,41.0634,-81.49079,41.0634,-81.49079,0.0,At Arlington St - Accident. in the left lane.,,S Arlington St,R,Akron,Summit,OH,44306,US,US/Eastern,KAKR,2016-02-11 19:54:00,9.0,2.4,73.0,30.31,10.0,SSW,3.5,,Clear,False,False,False,False,False,False,False,False,False,False,False,False,False,Night,Night,Night,Night
138,A-2716738,2,2016-02-11 20:58:41,2016-02-12 02:58:41,39.74284,-84.20479,39.75052,-84.20541,0.532,At US-35/Albany St/Exit 52 - Accident. in the left lane.,,I-75 N,R,Dayton,Montgomery,OH,45417,US,US/Eastern,KDAY,2016-02-11 20:56:00,17.1,,68.0,30.35,10.0,Calm,,,Scattered Clouds,False,False,False,False,True,False,False,False,False,False,False,False,False,Night,Night,Night,Night
139,A-2716739,2,2016-02-12 10:07:44,2016-02-12 19:07:44,41.46822,-81.9476,41.46866,-81.95449,0.358,At Crocker Rd/Exit 156 - Accident.,,Northwest Fwy W,R,Westlake,Cuyahoga,OH,44145,US,US/Eastern,KCLE,2016-02-12 09:51:00,17.1,5.0,65.0,30.17,10.0,SSW,10.4,,Overcast,False,False,False,False,False,False,False,False,False,False,False,False,False,Day,Day,Day,Day
140,A-2716740,4,2016-02-12 16:15:51,2016-02-12 22:15:51,41.92479,-83.36026,41.96429,-83.35018,2.778,Closed between M-50/Dixie Hwy/Exit 15 and Nadeau Rd/Exit 18 - Road closed due to accident.,,Detroit Toledo Expy N,R,Monroe,Monroe,MI,48162,US,US/Eastern,KTTF,2016-02-12 16:15:00,23.0,9.2,66.0,29.96,10.0,WNW,17.3,,Mostly Cloudy,False,False,False,False,False,False,False,False,False,False,False,False,False,Day,Day,Day,Day
141,A-2716741,4,2016-02-12 19:29:53,2016-02-13 01:29:53,41.184738,-80.432713,41.19189,-80.24637,9.702,Closed at US-19/Exit 15 - Road closed due to accident.,,I-80 E,R,West Middlesex,Mercer,PA,16159,US,US/Eastern,KUCP,2016-02-12 19:51:00,17.6,9.3,86.0,29.94,9.0,SW,5.8,0.0,Light Snow,False,False,False,False,False,False,False,False,False,False,False,False,False,Night,Night,Night,Night
142,A-2716742,4,2016-02-12 22:22:57,2016-02-13 04:22:57,40.27317,-85.5577,40.42642,-85.54938,10.598,Closed between US-35/IN-28/Exit 45 and IN-26/Exit 55 - Road closed due to accident.,,I-69 N,R,Gaston,Delaware,IN,47342,US,US/Eastern,KMIE,2016-02-12 21:53:00,16.0,2.9,59.0,30.28,10.0,NW,11.5,,Scattered Clouds,False,False,False,False,False,False,False,False,False,False,False,False,False,Night,Night,Night,Night
143,A-2716743,4,2016-02-12 22:26:48,2016-02-13 04:26:48,39.98264,-85.14302,39.97527,-85.14018,0.531,Closed between US-35 and Charles Rd - Road closed due to accident.,10603.0, Purple Heart Memorial Hwy,R,Economy,Wayne,IN,47339,US,US/Eastern,KMIE,2016-02-12 22:53:00,16.0,1.7,59.0,30.31,10.0,NW,13.8,,Partly Cloudy,False,False,False,False,False,False,False,False,False,False,False,False,False,Night,Night,Night,Night
144,A-2716744,4,2016-02-12 22:28:05,2016-02-13 04:28:05,40.27317,-85.5577,40.42642,-85.54938,10.598,Closed between US-35/IN-28/Exit 45 and IN-26/Exit 55 - Road closed due to accident.,,I-69 N,R,Gaston,Delaware,IN,47342,US,US/Eastern,KMIE,2016-02-12 22:53:00,16.0,1.7,59.0,30.31,10.0,NW,13.8,,Partly Cloudy,False,False,False,False,False,False,False,False,False,False,False,False,False,Night,Night,Night,Night
145,A-2716745,4,2016-02-12 22:28:05,2016-02-13 04:28:05,40.42667,-85.54968,40.27678,-85.55806,10.366,Closed between IN-26/Exit 55 and US-35/IN-28/Exit 45 - Road closed due to accident.,,I-69 S,R,Fairmount,Grant,IN,46928,US,US/Eastern,KMZZ,2016-02-12 22:35:00,15.3,0.2,57.0,30.29,10.0,NW,15.0,,Scattered Clouds,False,False,False,False,False,False,False,False,False,False,False,False,False,Night,Night,Night,Night
146,A-2716746,4,2016-02-12 22:26:48,2016-02-13 04:26:48,39.97527,-85.14018,39.98264,-85.14302,0.531,Closed between Charles Rd and US-35 - Road closed due to accident.,9609.0, N State Road 1,R,Hagerstown,Wayne,IN,47346-9786,US,US/Eastern,KMIE,2016-02-12 22:53:00,16.0,1.7,59.0,30.31,10.0,NW,13.8,,Partly Cloudy,False,False,False,False,False,False,False,False,False,False,False,False,False,Night,Night,Night,Night
147,A-2716747,2,2016-02-12 23:04:14,2016-02-13 05:04:14,39.09889,-84.52118,41.16722,-83.6497,150.138,Between I-71/US-50/Exit 1 and 8 Mile Rd/Exit 59 - Accident. in the left lane.,,I-75 N,R,Cincinnati,Hamilton,OH,45202,US,US/Eastern,KLUK,2016-02-12 23:14:00,19.9,6.7,71.0,30.32,2.5,NNW,13.8,0.0,Light Snow,False,False,False,False,False,False,False,False,False,False,False,False,False,Night,Night,Night,Night
148,A-2716748,2,2016-02-12 23:04:14,2016-02-13 05:04:14,38.88012,-84.62527,39.09875,-84.52119,16.107,Between I-71/Exit 173 and I-71/US-50/Exit 1 - Accident. in the left lane.,,I-75 N,R,Walton,Boone,KY,41094,US,US/Eastern,KCVG,2016-02-12 22:52:00,19.9,3.9,68.0,30.29,10.0,NW,20.7,0.0,Overcast,False,False,False,False,False,False,False,False,False,False,False,False,False,Night,Night,Night,Night
149,A-2716749,2,2016-02-12 23:04:14,2016-02-13 05:04:14,38.79256,-84.60423,38.879317,-84.62519,6.1,Between KY-80/Exit 41 and I-71/Exit 173 - Accident. in the left lane.,,I-75 N,R,Crittenden,Kenton,KY,41030,US,US/Eastern,KCVG,2016-02-12 22:52:00,19.9,3.9,68.0,30.29,10.0,NW,20.7,0.0,Overcast,False,False,False,False,False,False,False,False,False,False,False,False,False,Night,Night,Night,Night
150,A-2716750,4,2016-02-13 04:56:20,2016-02-13 10:56:20,39.74284,-84.20479,39.77093,-84.1928,2.043,Closed between US-35/Albany St/Exit 52 and OH-48/Grand Ave/Exit 54 - Road closed due to accident.,,I-75 N,R,Dayton,Montgomery,OH,45417,US,US/Eastern,KDAY,2016-02-13 04:56:00,10.0,-6.5,67.0,30.44,10.0,NNW,15.0,0.01,Overcast,False,False,False,False,True,False,False,False,False,False,False,False,False,Night,Night,Night,Night
151,A-2716751,3,2016-02-13 07:14:41,2016-02-13 13:14:41,40.484222,-80.137554,40.503456,-80.139196,1.332,At Coraopolis Rd - Accident.,5.0, Forest Grove Rd,L,Coraopolis,Allegheny,PA,15108-3485,US,US/Eastern,KPIT,2016-02-13 06:51:00,6.1,-12.2,63.0,30.32,10.0,WNW,16.1,0.0,Partly Cloudy,False,False,False,False,False,False,False,False,False,False,False,False,False,Night,Day,Day,Day
152,A-2716752,3,2016-02-13 09:13:49,2016-02-13 15:13:49,41.20104,-80.06859,41.19661,-80.16752,5.152,Between PA-173/Exit 24 and I-79/Exit 19 - Accident.,,I-80 W,R,Grove City,Mercer,PA,16127,US,US/Eastern,KUCP,2016-02-13 08:56:00,7.0,-7.5,73.0,30.41,10.0,WNW,10.4,,Scattered Clouds,False,False,False,False,True,False,False,False,False,False,False,False,False,Day,Day,Day,Day
153,A-2716753,4,2016-02-13 16:00:59,2016-02-13 22:00:59,39.05528,-84.39072,39.058008,-84.35856,1.736,Closed between US-52/Exit 71 and Five Mile Rd/Exit 69 - Road closed due to accident.,,I-275 E,R,Cincinnati,Hamilton,OH,45230,US,US/Eastern,KLUK,2016-02-13 15:53:00,19.9,8.6,42.0,30.57,10.0,North,10.4,,Clear,False,False,False,False,False,False,False,False,False,False,False,False,False,Day,Day,Day,Day
154,A-2716754,4,2016-02-13 18:06:41,2016-02-14 00:06:41,41.623325,-83.692226,41.669943,-83.693369,3.222,Closed at US-20/OH-120/Central/Exit 13 - Road closed due to accident.,,I-475 N,R,Holland,Lucas,OH,43528,US,US/Eastern,KTOL,2016-02-13 17:52:00,15.1,4.2,68.0,30.5,10.0,West,8.1,0.0,Overcast,False,False,False,False,False,False,False,False,False,False,False,False,False,Night,Day,Day,Day
155,A-2716755,3,2016-02-13 18:48:40,2016-02-14 00:48:40,40.53024,-80.00957,40.53024,-80.00957,0.0,At Siebert Rd - Accident.,4875.0, McKnight Rd,L,Pittsburgh,Allegheny,PA,15237-3405,US,US/Eastern,KPIT,2016-02-13 18:51:00,7.0,-7.5,67.0,30.5,10.0,WNW,10.4,,Scattered Clouds,False,False,True,False,False,False,False,False,True,False,False,True,False,Night,Night,Day,Day
156,A-2716756,3,2016-02-13 18:48:40,2016-02-14 00:48:40,40.53024,-80.00957,40.53024,-80.00957,0.0,At Siebert Rd - Accident.,4875.0, McKnight Rd,L,Pittsburgh,Allegheny,PA,15237-3405,US,US/Eastern,KPIT,2016-02-13 18:51:00,7.0,-7.5,67.0,30.5,10.0,WNW,10.4,,Scattered Clouds,False,False,True,False,False,False,False,False,True,False,False,True,False,Night,Night,Day,Day
157,A-2716757,4,2016-02-13 22:20:43,2016-02-14 04:20:43,40.06527,-82.99591,40.04638,-82.99752,1.308,Closed between Morse Rd/Exit 116 and Cooke Rd/Exit 115 - Road closed due to accident.,,North Fwy S,R,Columbus,Franklin,OH,43229,US,US/Eastern,KOSU,2016-02-13 21:53:00,8.1,-4.3,70.0,30.53,10.0,West,8.1,,Clear,False,False,False,False,True,False,False,False,False,False,False,False,False,Night,Night,Night,Night
158,A-2716758,4,2016-02-14 03:58:33,2016-02-14 09:58:33,40.43954,-80.00971,40.4342,-79.99635,0.794,Closed between I-279/Exit 70C and Grant St/Exit 71A - Road closed due to accident.,,Parkway East,R,Pittsburgh,Allegheny,PA,15222,US,US/Eastern,KAGC,2016-02-14 03:53:00,5.0,-8.1,80.0,30.5,10.0,West,8.1,,Clear,False,False,False,False,True,False,False,False,False,True,False,False,False,Night,Night,Night,Night
159,A-2716759,4,2016-02-14 05:26:58,2016-02-14 11:26:58,41.422004,-81.730092,41.4258,-81.75658,1.397,Closed between Ridge Rd/Exit 15 and Tiedeman Rd/Exit 13 - Road closed due to accident.,,Outerbelt South Fwy W,R,Cleveland,Cuyahoga,OH,44129,US,US/Eastern,KCLE,2016-02-14 05:51:00,3.0,-4.4,84.0,30.55,10.0,SSW,3.5,0.0,Scattered Clouds,False,False,False,False,False,False,False,False,False,False,False,False,False,Night,Night,Night,Night
160,A-2716760,4,2016-02-14 16:30:40,2016-02-14 22:30:40,39.3638,-85.51659,39.45279,-85.628,8.554,Closed between US-421/Exit 132 and US-421/Exit 123 - Road closed due to accident.,,I-74 W,R,Greensburg,Decatur,IN,47240,US,US/Eastern,KBAK,2016-02-14 16:50:00,17.6,5.7,100.0,30.15,0.8,ESE,10.4,,Snow,False,False,False,False,False,False,False,False,False,False,False,False,False,Day,Day,Day,Day
161,A-2716761,4,2016-02-14 16:38:40,2016-02-14 22:38:40,39.82083,-85.7749,39.84037,-85.55421,11.787,Closed between IN-9/Exit 104 and IN-109/Exit 115 - Road closed due to accident.,,I-70 E,R,Greenfield,Hancock,IN,46140,US,US/Eastern,KMQJ,2016-02-14 16:35:00,17.6,5.7,86.0,30.16,1.0,SE,10.4,,Overcast,False,False,False,False,False,False,False,False,False,False,False,False,False,Day,Day,Day,Day
162,A-2716762,3,2016-02-14 17:40:17,2016-02-14 23:40:17,40.0366,-85.72562,40.03833,-85.71948,0.346,At IN-67/IN-9/Exit 22 - Accident.,,I-69 N,R,Anderson,Madison,IN,46013,US,US/Eastern,KAID,,,,,,,,,,,False,False,False,False,False,False,False,False,False,False,False,False,False,Day,Day,Day,Day
163,A-2716763,4,2016-02-14 18:02:32,2016-02-15 00:02:32,39.855691,-84.290792,39.864781,-84.202359,4.732,Closed between Hoke Rd/Exit 26 and I-75/Exit 33 - Road closed due to accident.,,I-70 E,R,Englewood,Montgomery,OH,45322,US,US/Eastern,KDAY,2016-02-14 17:56:00,15.1,-0.1,88.0,30.25,0.8,East,15.0,0.03,Light Snow,False,False,False,False,False,False,False,False,False,False,False,False,False,Day,Day,Day,Day
164,A-2716764,3,2016-02-14 18:03:51,2016-02-15 00:03:51,40.049152,-85.682047,40.03744,-85.72343,2.334,At IN-67/IN-9/Exit 22 - Accident.,,IN-9 S,R,Anderson,Madison,IN,46013,US,US/Eastern,KAID,,,,,,,,,,,False,False,False,False,False,False,False,False,False,False,False,False,False,Day,Day,Day,Day
165,A-2716765,4,2016-02-14 18:25:41,2016-02-15 00:25:41,39.83939,-85.55752,39.82115,-85.77004,11.347,Closed between IN-109/Exit 115 and IN-9/Exit 104 - Road closed due to accident.,,I-70 W,R,Knightstown,Henry,IN,46148,US,US/Eastern,KMQJ,2016-02-14 18:35:00,17.6,4.3,79.0,30.12,10.0,ESE,12.7,,Overcast,False,False,False,False,False,False,False,False,False,False,False,False,False,Night,Day,Day,Day
166,A-2716766,4,2016-02-15 02:01:29,2016-02-15 08:01:29,40.13386,-80.00666,40.12519,-79.95815,2.632,Closed between PA-917/Exit 32 and PA-481/Exit 35 - Road closed due to accident.,,I-70 W,R,Bentleyville,Washington,PA,15314,US,US/Eastern,KAFJ,2016-02-15 01:55:00,19.4,11.5,74.0,30.15,10.0,ESE,5.8,,Overcast,False,False,False,False,False,False,False,False,False,False,False,False,False,Night,Night,Night,Night
167,A-2716767,4,2016-02-15 03:06:11,2016-02-15 09:06:11,40.43954,-80.00971,40.4342,-79.99635,0.794,Closed between I-279/Exit 70C and Grant St/Exit 71A - Road closed due to accident.,,Parkway East,R,Pittsburgh,Allegheny,PA,15222,US,US/Eastern,KAGC,2016-02-15 02:53:00,21.9,11.7,63.0,30.21,10.0,SE,9.2,,Overcast,False,False,False,False,True,False,False,False,False,True,False,False,False,Night,Night,Night,Night
168,A-2716768,4,2016-02-15 04:32:48,2016-02-15 10:32:48,40.13386,-80.00666,40.12519,-79.95815,2.632,Closed between PA-917/Exit 32 and PA-481/Exit 35 - Road closed due to accident.,,I-70 W,R,Bentleyville,Washington,PA,15314,US,US/Eastern,KAFJ,2016-02-15 04:35:00,19.4,14.3,86.0,30.1,10.0,ESE,3.5,,Overcast,False,False,False,False,False,False,False,False,False,False,False,False,False,Night,Night,Night,Night
169,A-2716769,4,2016-02-15 05:10:51,2016-02-15 11:48:55,40.13386,-80.00666,40.12519,-79.95815,2.632,Closed between McIlvaine Rd/Exit 31 and PA-481/Exit 35 - Road closed due to accident.,,I-70 W,R,Bentleyville,Washington,PA,15314,US,US/Eastern,KAFJ,2016-02-15 05:15:00,21.2,14.9,80.0,30.09,10.0,SE,4.6,,Overcast,False,False,False,False,False,False,False,False,False,False,False,False,False,Night,Night,Night,Night
170,A-2716770,2,2016-02-15 05:45:22,2016-02-15 11:45:22,39.97859,-82.9763,39.97418,-83.00344,1.469,Between I-71 and US-23/Third St/Fourth St/Exit 4 - Accident.,,I-670 W,R,Columbus,Franklin,OH,43203,US,US/Eastern,KCMH,2016-02-15 05:51:00,21.9,14.5,89.0,30.06,5.0,SE,5.8,0.0,Light Freezing Drizzle,False,False,False,False,False,False,False,False,False,False,False,False,False,Night,Night,Night,Night
171,A-2716771,2,2016-02-15 06:15:54,2016-02-15 12:15:54,39.95459,-83.04255,39.95928,-83.04736,0.412,At US-40/Broad St/Exit 97 - Accident.,,I-70 W,R,Columbus,Franklin,OH,43222,US,US/Eastern,KTZR,2016-02-15 06:15:00,22.8,13.6,96.0,30.02,3.0,SSE,8.1,,Light Snow,False,False,False,False,False,False,False,False,False,False,False,False,False,Night,Night,Night,Day
172,A-2716772,4,2016-02-15 06:18:26,2016-02-15 12:18:26,39.68291,-85.97372,39.67907,-85.96786,0.409,At Acton Rd/Exit 99 - Accident.,,US-421 S,R,Indianapolis,Marion,IN,46239,US,US/Eastern,KMQJ,2016-02-15 06:14:00,21.2,14.9,100.0,29.97,1.8,South,4.6,,Overcast,False,False,False,False,True,False,False,False,False,False,False,False,False,Night,Night,Night,Day
173,A-2716773,2,2016-02-15 06:37:42,2016-02-15 12:37:42,38.49304,-85.77156,38.48923,-85.77188,0.264,At Blue Lick Rd/Exit 16 - Accident.,,I-65 S,R,Memphis,Clark,IN,47143,US,US/Eastern,KLOU,2016-02-15 06:53:00,30.9,,96.0,30.01,2.0,Calm,,,Overcast,False,False,False,False,True,False,False,False,False,False,False,False,False,Night,Night,Day,Day
174,A-2716774,4,2016-02-15 06:57:57,2016-02-15 12:57:57,38.33428,-85.82177,38.33649,-85.81712,0.295,At IN-111/Grant Line Rd/Exit 3 - Accident.,,I-265 E,R,New Albany,Floyd,IN,47150,US,US/Eastern,KLOU,2016-02-15 06:53:00,30.9,,96.0,30.01,2.0,Calm,,,Overcast,False,False,False,False,False,False,False,False,False,False,False,False,False,Night,Night,Day,Day
175,A-2716775,2,2016-02-15 07:01:46,2016-02-15 13:01:46,39.99921,-83.02875,39.97825,-83.02147,1.499,Between Kinnear Rd and I-670 E - Accident.,,Olentangy Fwy N,R,Columbus,Franklin,OH,43210,US,US/Eastern,KOSU,2016-02-15 06:53:00,24.1,15.2,91.0,30.06,2.5,SSE,8.1,,Overcast,False,False,False,False,False,False,False,False,False,False,False,False,False,Night,Day,Day,Day
176,A-2716776,3,2016-02-15 07:13:27,2016-02-15 13:13:27,38.53844,-85.77702,38.54355,-85.7781,0.358,At IN-160/Exit 19 - Accident.,,I-65 N,R,Henryville,Clark,IN,47126,US,US/Eastern,KLOU,2016-02-15 07:15:00,32.0,,92.0,29.99,2.0,Calm,,,Overcast,False,False,False,False,False,False,False,False,False,False,False,False,False,Night,Day,Day,Day
177,A-2716777,2,2016-02-15 07:14:44,2016-02-15 13:14:44,38.1781,-85.71946,38.18104,-85.72116,0.223,At KY-61/Grade Lane/Exit 130 - Accident.,,Dr Martin Luther King Jr Expy N,R,Louisville,Jefferson,KY,40213,US,US/Eastern,KSDF,2016-02-15 07:03:00,32.0,26.4,92.0,29.99,2.0,SE,5.8,0.0,Light Drizzle,False,False,False,False,False,False,False,False,False,False,False,False,False,Night,Day,Day,Day
178,A-2716778,2,2016-02-15 07:14:44,2016-02-15 13:14:44,39.87433,-82.99882,39.89356,-83.04101,2.602,Between US-23/High St/Exit 52 and I-71/Exit 55 - Accident.,,Outerbelt W,R,Columbus,Franklin,OH,43207,US,US/Eastern,KLCK,2016-02-15 07:15:00,25.2,17.3,96.0,30.02,1.2,South,6.9,,Overcast,False,False,False,False,False,False,False,False,False,False,False,False,False,Night,Day,Day,Day
179,A-2716779,4,2016-02-15 07:34:04,2016-02-15 13:34:04,41.39546,-85.32855,41.39469,-85.28893,2.054,Closed between County Road 500 E and County Road 700 E - Road closed due to accident.,3002.0, N 500 E,R,Kendallville,Noble,IN,46755-9663,US,US/Eastern,KGWB,2016-02-15 07:35:00,21.2,,86.0,29.96,2.0,Calm,,,Overcast,False,False,False,False,False,False,False,False,False,False,False,False,False,Night,Day,Day,Day
180,A-2716780,4,2016-02-15 07:34:04,2016-02-15 13:34:04,41.39469,-85.28893,41.39546,-85.32855,2.054,Closed between County Road 700 E and County Road 500 E - Road closed due to accident.,2968.0, N 700 E,R,Avilla,Noble,IN,46710,US,US/Eastern,KGWB,2016-02-15 07:35:00,21.2,,86.0,29.96,2.0,Calm,,,Overcast,False,False,False,False,False,False,False,False,False,False,False,False,False,Night,Day,Day,Day
181,A-2716781,3,2016-02-15 07:34:04,2016-02-15 13:34:04,41.90473,-83.36986,41.90569,-83.36915,0.076,At Elm Ave/Exit 14 - Accident.,,I-75 S,R,Monroe,Monroe,MI,48162,US,US/Eastern,KTTF,2016-02-15 07:33:00,21.2,12.6,87.0,30.01,10.0,SSE,6.9,,Overcast,False,False,False,False,True,False,False,False,False,False,False,False,False,Day,Day,Day,Day
182,A-2716782,4,2016-02-15 08:54:54,2016-02-15 14:54:54,40.77137,-84.62203,40.80059,-84.61374,2.065,Closed between OH-709 and Wren Landeck Rd - Road closed due to accident.,513.0, W Carmean St,R,Ohio City,Van Wert,OH,45874-9037,US,US/Eastern,KAOH,2016-02-15 08:53:00,24.1,15.2,91.0,30.01,5.0,South,8.1,,Overcast,False,False,False,False,False,False,False,False,False,False,False,False,False,Day,Day,Day,Day
183,A-2716783,4,2016-02-15 08:54:54,2016-02-15 14:54:54,40.80059,-84.61374,40.77137,-84.62203,2.065,Closed between Wren Landeck Rd and OH-709 - Road closed due to accident.,10763.0, Wren Landeck Rd,L,Van Wert,Van Wert,OH,45891-9236,US,US/Eastern,KAOH,2016-02-15 08:53:00,24.1,15.2,91.0,30.01,5.0,South,8.1,,Overcast,False,False,False,False,False,False,False,False,False,False,False,False,False,Day,Day,Day,Day
184,A-2716784,2,2016-02-15 10:06:20,2016-02-15 16:06:20,39.87433,-82.99882,39.89356,-83.04101,2.602,Between US-23/High St/Exit 52 and I-71/Exit 55 - Accident.,,Outerbelt W,R,Columbus,Franklin,OH,43207,US,US/Eastern,KLCK,2016-02-15 10:15:00,28.9,20.4,94.0,30.0,7.0,South,9.2,,Overcast,False,False,False,False,False,False,False,False,False,False,False,False,False,Day,Day,Day,Day
185,A-2716785,4,2016-02-15 10:56:40,2016-02-15 16:56:40,40.78593,-84.61787,40.80059,-84.61374,1.036,Closed between Glenmore Rd and Wren Landeck Rd - Road closed due to accident.,15048.0, State Route 118,L,Ohio City,Van Wert,OH,45874-9630,US,US/Eastern,KAOH,2016-02-15 10:53:00,27.0,17.3,92.0,29.99,10.0,SSW,10.4,,Overcast,False,False,False,False,False,False,False,False,False,False,False,False,False,Day,Day,Day,Day
186,A-2716786,4,2016-02-15 10:56:40,2016-02-15 16:56:40,40.80059,-84.61374,40.78593,-84.61787,1.036,Closed between Wren Landeck Rd and Glenmore Rd - Road closed due to accident.,10763.0, Wren Landeck Rd,L,Van Wert,Van Wert,OH,45891-9236,US,US/Eastern,KAOH,2016-02-15 10:53:00,27.0,17.3,92.0,29.99,10.0,SSW,10.4,,Overcast,False,False,False,False,False,False,False,False,False,False,False,False,False,Day,Day,Day,Day
187,A-2716787,2,2016-02-15 11:21:10,2016-02-15 17:21:10,41.67487,-83.57266,41.67274,-83.57252,0.147,At I-475/Exit 204 - Accident.,,I-75 N,R,Toledo,Lucas,OH,43610,US,US/Eastern,KDUH,2016-02-15 11:14:00,24.3,17.3,93.0,29.97,5.0,SSW,5.8,,Overcast,False,False,False,False,False,False,False,False,False,False,False,False,False,Day,Day,Day,Day
188,A-2716788,2,2016-02-15 12:26:40,2016-02-15 18:26:40,41.47376,-81.86113,41.4696,-81.81106,2.608,Between OH-2/OH-254/Detroit Rd/Exit 161 and McKinley Ave/Exit 164 - Accident.,,Northwest Fwy W,R,Rocky River,Cuyahoga,OH,44116,US,US/Eastern,KCLE,2016-02-15 12:51:00,30.0,20.5,82.0,29.99,10.0,South,11.5,,Overcast,False,False,False,False,False,False,False,False,False,False,False,False,False,Day,Day,Day,Day
189,A-2716789,3,2016-02-15 13:03:46,2016-02-15 19:03:46,38.33465,-85.75389,38.31053,-85.75245,1.668,At US-31/IN-131/Exit 4 - Accident.,,I-65 S,R,Clarksville,Clark,IN,47129,US,US/Eastern,KLOU,2016-02-15 12:53:00,37.0,33.3,93.0,29.94,5.0,South,4.6,,Overcast,False,False,False,False,True,False,False,False,False,False,False,False,False,Day,Day,Day,Day
190,A-2716790,2,2016-02-15 14:07:41,2016-02-15 20:07:41,39.14014,-84.53495,39.12338,-84.53557,1.158,Between US-52/Hopple St/Exit 3 and Western Hills Viad/Exit 2 - Accident.,,I-75 S,R,Cincinnati,Hamilton,OH,45225,US,US/Eastern,KLUK,2016-02-15 13:53:00,35.1,30.1,92.0,29.94,2.0,South,5.8,,Overcast,False,False,False,False,False,False,False,False,False,False,False,False,False,Day,Day,Day,Day
191,A-2716791,3,2016-02-15 14:48:00,2016-02-15 20:48:00,41.80143,-85.34888,41.81755,-85.32291,1.74,At Burr Oak Rd - Accident.,31081.0, E Chicago Rd,R,Sturgis,Saint Joseph,MI,49091-9547,US,US/Eastern,KIRS,2016-02-15 14:55:00,25.7,18.0,89.0,29.84,4.0,South,6.9,,Overcast,False,False,False,False,False,False,False,False,False,False,False,False,False,Day,Day,Day,Day
192,A-2716792,3,2016-02-15 14:48:00,2016-02-15 20:48:00,41.81755,-85.32291,41.80143,-85.34888,1.74,At Burr Oak Rd - Accident.,32634.0, E Chicago Rd,L,Burr Oak,Saint Joseph,MI,49030-9604,US,US/Eastern,KIRS,2016-02-15 14:55:00,25.7,18.0,89.0,29.84,4.0,South,6.9,,Overcast,False,False,False,False,False,False,False,False,False,False,False,False,False,Day,Day,Day,Day
193,A-2716793,2,2016-02-15 16:21:40,2016-02-15 22:21:40,41.35761,-81.81988,41.35535,-81.81927,0.159,At US-42/Exit 234 - Accident.,,I-71 S,R,Cleveland,Cuyahoga,OH,44130,US,US/Eastern,KCLE,2016-02-15 16:51:00,33.1,27.7,82.0,29.96,7.0,South,5.8,,Overcast,False,False,False,False,False,False,False,False,False,False,False,False,False,Day,Day,Day,Day
194,A-2716794,2,2016-02-15 16:38:32,2016-02-15 22:38:32,39.34392,-84.39043,39.34107,-84.39895,0.496,At Cin-Day Rd/Exit 21 - Accident.,,I-75 S,R,West Chester,Butler,OH,45069,US,US/Eastern,KHAO,2016-02-15 16:51:00,35.6,,87.0,29.86,0.8,Calm,,,Overcast,False,False,False,False,False,False,False,False,False,False,False,False,False,Day,Day,Day,Day
195,A-2716795,2,2016-02-15 19:02:45,2016-02-16 01:02:45,39.816154,-83.180105,39.825024,-83.151338,1.645,At US-62/OH-3/Exit 94 - Accident.,,I-71 N,R,Orient,Franklin,OH,43146,US,US/Eastern,KTZR,2016-02-15 18:55:00,33.1,,100.0,29.86,1.8,Calm,,,Overcast,False,False,False,False,False,False,False,False,False,False,False,False,False,Night,Night,Day,Day
196,A-2716796,4,2016-02-15 20:46:40,2016-02-16 02:46:40,38.824929,-85.474495,38.82415,-85.63794,8.798,Closed between US-421 and IN-3 - Road closed due to accident.,4722.0, W State Road 250,R,Madison,Jefferson,IN,47250,US,US/Eastern,KLOU,2016-02-15 20:53:00,37.0,34.5,96.0,29.85,1.5,NNW,3.5,0.0,Overcast,False,False,False,False,False,False,False,False,False,False,False,False,False,Night,Night,Night,Night
197,A-2716797,4,2016-02-15 20:46:40,2016-02-16 02:46:40,38.82415,-85.63794,38.824929,-85.474495,8.798,Closed between IN-3 and US-421 - Road closed due to accident.,1410.0, W State Highway 250,R,Deputy,Jefferson,IN,47230-9365,US,US/Eastern,KBAK,2016-02-15 20:59:00,32.0,,100.0,29.83,3.0,Calm,,,Overcast,False,False,False,False,False,False,False,False,False,False,False,False,False,Night,Night,Night,Night
198,A-2716798,4,2016-02-15 23:04:19,2016-02-16 05:04:19,40.593244,-85.150017,40.600487,-85.150502,0.501,Closed between IN-18 and IN-218 - Road closed due to accident.,10233.0, S State Road 1,R,Keystone,Wells,IN,46759-9758,US,US/Eastern,KMZZ,2016-02-15 22:55:00,29.8,,73.0,29.82,7.0,Calm,,,Overcast,False,False,False,False,False,False,False,False,False,False,False,False,False,Night,Night,Night,Night
199,A-2716799,4,2016-02-15 23:04:19,2016-02-16 05:04:19,40.600487,-85.150502,40.593244,-85.150017,0.501,Closed between IN-218 and IN-18 - Road closed due to accident.,9797.0, S State Road 1,R,Keystone,Wells,IN,46759-9773,US,US/Eastern,KMZZ,2016-02-15 22:55:00,29.8,,73.0,29.82,7.0,Calm,,,Overcast,False,False,False,False,False,False,False,False,False,False,False,False,False,Night,Night,Night,Night
